{"places":[{"id":"1224104","title":"Tiefgarage P&R F\u00fcrstenried","city":"M\u00fcnchen","street":"Neurieder Str.","streetNumber":"40","location":{"lat":"48.087114","lng":"11.4847368"},"media":{"listPictureUrl":"http:\/\/daten.mde3.de\/img\/photo_131945_178.jpg"},"isProduct":false,"detailUrl":"https:\/\/muenchenapis.de\/places\/api\/v2\/places\/1224104.json","urlInPortal":"http:\/\/www.muenchen.de\/verkehr\/orte\/1224104.html","ratingAverage":"0.00","allowPhotoUpload":true},{"id":"1253403","title":"Parkhaus Audi Dome","city":"M\u00fcnchen","street":"Siegenburger Str.","streetNumber":"65","location":{"lat":"48.12738543","lng":"11.52276568"},"media":{"listPictureUrl":"http:\/\/daten.mde3.de\/img\/photo_250535_178.jpg"},"isProduct":false,"detailUrl":"https:\/\/muenchenapis.de\/places\/api\/v2\/places\/1253403.json","urlInPortal":"http:\/\/www.muenchen.de\/verkehr\/orte\/1253403.html","ratingAverage":"0.00","allowPhotoUpload":true},{"id":"1253402","title":"Parkhaus Laimer Platz","city":"M\u00fcnchen","street":"F\u00fcrstenrieder Str.","streetNumber":"62","location":{"lat":"48.13591","lng":"11.5026"},"media":{"listPictureUrl":"http:\/\/daten.mde3.de\/img\/photo_250534_178.jpg"},"isProduct":false,"detailUrl":"https:\/\/muenchenapis.de\/places\/api\/v2\/places\/1253402.json","urlInPortal":"http:\/\/www.muenchen.de\/verkehr\/orte\/1253402.html","ratingAverage":"0.00","allowPhotoUpload":true},{"id":"1224105","title":"Tiefgarage P&R Heimeranplatz","city":"M\u00fcnchen","street":"Garmischer Str.","streetNumber":"19","location":{"lat":"48.1314008","lng":"11.5309121"},"media":{"listPictureUrl":"http:\/\/daten.mde3.de\/img\/photo_131946_178.jpg"},"isProduct":false,"detailUrl":"https:\/\/muenchenapis.de\/places\/api\/v2\/places\/1224105.json","urlInPortal":"http:\/\/www.muenchen.de\/verkehr\/orte\/1224105.html","ratingAverage":"0.00","allowPhotoUpload":true},{"id":"1224110","title":"West 4","city":"M\u00fcnchen","street":"Elsenheimerstr.","streetNumber":"57","location":{"lat":"48.13744","lng":"11.52306"},"media":{"listPictureUrl":"http:\/\/daten.mde3.de\/img\/photo_131951_178.jpg"},"isProduct":false,"detailUrl":"https:\/\/muenchenapis.de\/places\/api\/v2\/places\/1224110.json","urlInPortal":"http:\/\/www.muenchen.de\/verkehr\/orte\/1224110.html","ratingAverage":"0.00","allowPhotoUpload":true},{"id":"1250726","title":"Parkhaus Euroguard","city":"M\u00fcnchen","street":"Gollierstr.","streetNumber":"6","location":{"lat":"48.13580359","lng":"11.54693858"},"media":{"listPictureUrl":"http:\/\/daten.mde3.de\/img\/photo_249030_178.jpg"},"isProduct":false,"detailUrl":"https:\/\/muenchenapis.de\/places\/api\/v2\/places\/1250726.json","urlInPortal":"http:\/\/www.muenchen.de\/verkehr\/orte\/1250726.html","ratingAverage":"5.00","allowPhotoUpload":true},{"id":"23503","title":"Parkhaus Saturn","city":"M\u00fcnchen","street":"Schwanthalerstr.","streetNumber":"113","location":{"lat":"48.13771856","lng":"11.54630601"},"media":{"listPictureUrl":"http:\/\/daten.mde3.de\/img\/photo_128671_178.jpg"},"isProduct":false,"detailUrl":"https:\/\/muenchenapis.de\/places\/api\/v2\/places\/23503.json","urlInPortal":"http:\/\/www.muenchen.de\/verkehr\/orte\/23503.html","ratingAverage":"0.00","allowPhotoUpload":true},{"id":"1224107","title":"Tiefgarage P&R Mangfallplatz","city":"M\u00fcnchen","street":"Am Hollerbusch","streetNumber":"22","location":{"lat":"48.0953261","lng":"11.5744451"},"media":{"listPictureUrl":"http:\/\/daten.mde3.de\/img\/photo_131948_178.jpg"},"isProduct":false,"detailUrl":"https:\/\/muenchenapis.de\/places\/api\/v2\/places\/1224107.json","urlInPortal":"http:\/\/www.muenchen.de\/verkehr\/orte\/1224107.html","ratingAverage":"0.00","allowPhotoUpload":true},{"id":"1253404","title":"Tiefgarage ZOB","city":"M\u00fcnchen","street":"Bernhard-Wicki-Str.","streetNumber":"11","location":{"lat":"48.14248249","lng":"11.54842869"},"media":{"listPictureUrl":"http:\/\/daten.mde3.de\/img\/photo_250536_178.jpg"},"isProduct":false,"detailUrl":"https:\/\/muenchenapis.de\/places\/api\/v2\/places\/1253404.json","urlInPortal":"http:\/\/www.muenchen.de\/verkehr\/orte\/1253404.html","ratingAverage":"0.00","allowPhotoUpload":true},{"id":"121102","title":"CarPark Cristal","city":"M\u00fcnchen","street":"Schwanthalerstr.","streetNumber":"36","location":{"lat":"48.13758","lng":"11.55911"},"media":{"listPictureUrl":"http:\/\/daten.mde3.de\/img\/photo_127877_178.jpg"},"isProduct":false,"detailUrl":"https:\/\/muenchenapis.de\/places\/api\/v2\/places\/121102.json","urlInPortal":"http:\/\/www.muenchen.de\/verkehr\/orte\/121102.html","ratingAverage":"0.00","allowPhotoUpload":true},{"id":"121091","title":"Parkgarage am Goethe Center","city":"M\u00fcnchen","street":"Senefelderstr.","streetNumber":"6","location":{"lat":"48.1387","lng":"11.5601"},"media":{"listPictureUrl":"http:\/\/daten.mde3.de\/img\/photo_127866_178.jpg"},"isProduct":false,"detailUrl":"https:\/\/muenchenapis.de\/places\/api\/v2\/places\/121091.json","urlInPortal":"http:\/\/www.muenchen.de\/verkehr\/orte\/121091.html","ratingAverage":"0.00","allowPhotoUpload":true},{"id":"121095","title":"Sonnenhof-Garage","city":"M\u00fcnchen","street":"Landwehrstr.","streetNumber":"10","location":{"lat":"48.1364089","lng":"11.5632499"},"media":{"listPictureUrl":"http:\/\/daten.mde3.de\/img\/photo_127870_178.jpg"},"isProduct":false,"detailUrl":"https:\/\/muenchenapis.de\/places\/api\/v2\/places\/121095.json","urlInPortal":"http:\/\/www.muenchen.de\/verkehr\/orte\/121095.html","ratingAverage":"4.50","allowPhotoUpload":true},{"id":"63679","title":"Parkgarage Senefelderstra\u00dfe","city":"M\u00fcnchen","street":"Senefelderstr.","streetNumber":"7 -13","location":{"lat":"48.13876167","lng":"11.56033949"},"media":{"listPictureUrl":"http:\/\/daten.mde3.de\/img\/photo_129215_178.jpg"},"isProduct":false,"detailUrl":"https:\/\/muenchenapis.de\/places\/api\/v2\/places\/63679.json","urlInPortal":"http:\/\/www.muenchen.de\/verkehr\/orte\/63679.html","ratingAverage":"0.00","allowPhotoUpload":true},{"id":"121090","title":"Hopfenpost Parkhaus","city":"M\u00fcnchen","street":"Hopfenstr.","streetNumber":"6","location":{"lat":"48.143337","lng":"11.554503"},"media":{"listPictureUrl":"http:\/\/daten.mde3.de\/img\/photo_127865_178.jpg"},"isProduct":false,"detailUrl":"https:\/\/muenchenapis.de\/places\/api\/v2\/places\/121090.json","urlInPortal":"http:\/\/www.muenchen.de\/verkehr\/orte\/121090.html","ratingAverage":"3.00","allowPhotoUpload":true},{"id":"72505","title":"Parkhaus am Stachus","city":"M\u00fcnchen","street":"Adolf-Kolping-Str.","streetNumber":"10","location":{"lat":"48.1381075","lng":"11.5630355"},"media":{"listPictureUrl":"http:\/\/daten.mde3.de\/img\/photo_129326_178.jpg"},"isProduct":false,"detailUrl":"https:\/\/muenchenapis.de\/places\/api\/v2\/places\/72505.json","urlInPortal":"http:\/\/www.muenchen.de\/verkehr\/orte\/72505.html","ratingAverage":"4.67","allowPhotoUpload":true},{"id":"1224102","title":"Galeria Kaufhof Rotkreuzplatz","city":"M\u00fcnchen","street":"Donnersbergerstr.","streetNumber":null,"location":{"lat":"48.15266616","lng":"11.53277065"},"media":{"listPictureUrl":"http:\/\/daten.mde3.de\/img\/photo_131943_178.jpg"},"isProduct":false,"detailUrl":"https:\/\/muenchenapis.de\/places\/api\/v2\/places\/1224102.json","urlInPortal":"http:\/\/www.muenchen.de\/verkehr\/orte\/1224102.html","ratingAverage":"0.00","allowPhotoUpload":true},{"id":"153788","title":"Parkhaus am Hauptbahnhof","city":"M\u00fcnchen","street":"Arnulfstr.","streetNumber":"1","location":{"lat":"48.141043557113","lng":"11.559701929572"},"media":{"listPictureUrl":"http:\/\/daten.mde3.de\/img\/photo_127891_178.jpg"},"isProduct":false,"detailUrl":"https:\/\/muenchenapis.de\/places\/api\/v2\/places\/153788.json","urlInPortal":"http:\/\/www.muenchen.de\/verkehr\/orte\/153788.html","ratingAverage":"0.00","allowPhotoUpload":true},{"id":"121107","title":"Karstadt M\u00fcnchen Bahnhofplatz","city":"M\u00fcnchen","street":"Bahnhofplatz","streetNumber":"7","location":{"lat":"48.140499","lng":"11.560844"},"media":{"listPictureUrl":"http:\/\/daten.mde3.de\/img\/photo_127882_178.jpg"},"isProduct":false,"detailUrl":"https:\/\/muenchenapis.de\/places\/api\/v2\/places\/121107.json","urlInPortal":"http:\/\/www.muenchen.de\/verkehr\/orte\/121107.html","ratingAverage":"3.00","allowPhotoUpload":true},{"id":"121104","title":"Tiefgarage am Hauptbahnhof","city":"M\u00fcnchen","street":"Bahnhofplatz","streetNumber":"2","location":{"lat":"48.14076","lng":"11.56061"},"media":{"listPictureUrl":"http:\/\/daten.mde3.de\/img\/photo_127879_178.jpg"},"isProduct":false,"detailUrl":"https:\/\/muenchenapis.de\/places\/api\/v2\/places\/121104.json","urlInPortal":"http:\/\/www.muenchen.de\/verkehr\/orte\/121104.html","ratingAverage":"0.00","allowPhotoUpload":true},{"id":"121106","title":"Parkhaus an der Marsstra\u00dfe","city":"M\u00fcnchen","street":"Hirtenstr.","streetNumber":"14","location":{"lat":"48.142139","lng":"11.55854"},"media":{"listPictureUrl":"http:\/\/daten.mde3.de\/img\/photo_127881_178.jpg"},"isProduct":false,"detailUrl":"https:\/\/muenchenapis.de\/places\/api\/v2\/places\/121106.json","urlInPortal":"http:\/\/www.muenchen.de\/verkehr\/orte\/121106.html","ratingAverage":"2.00","allowPhotoUpload":true},{"id":"121092","title":"Parkhaus Oberanger","city":"M\u00fcnchen","street":"Oberanger","streetNumber":"27","location":{"lat":"48.134029","lng":"11.569986"},"media":{"listPictureUrl":"http:\/\/daten.mde3.de\/img\/photo_127867_178.jpg"},"isProduct":false,"detailUrl":"https:\/\/muenchenapis.de\/places\/api\/v2\/places\/121092.json","urlInPortal":"http:\/\/www.muenchen.de\/verkehr\/orte\/121092.html","ratingAverage":"5.00","allowPhotoUpload":true},{"id":"121094","title":"Tiefgarage Stachus","city":"M\u00fcnchen","street":"Herzog-Wilhelm-Str.","streetNumber":"11","location":{"lat":"48.137601","lng":"11.5667028"},"media":{"listPictureUrl":"http:\/\/daten.mde3.de\/img\/photo_127869_178.jpg"},"isProduct":false,"detailUrl":"https:\/\/muenchenapis.de\/places\/api\/v2\/places\/121094.json","urlInPortal":"http:\/\/www.muenchen.de\/verkehr\/orte\/121094.html","ratingAverage":"4.00","allowPhotoUpload":true},{"id":"121086","title":"K\u00f6nigshof","city":"M\u00fcnchen","street":"Karlsplatz","streetNumber":"25","location":{"lat":"48.139694245983","lng":"11.564349081816"},"media":{"listPictureUrl":"http:\/\/daten.mde3.de\/img\/photo_127862_178.jpg"},"isProduct":false,"detailUrl":"https:\/\/muenchenapis.de\/places\/api\/v2\/places\/121086.json","urlInPortal":"http:\/\/www.muenchen.de\/verkehr\/orte\/121086.html","ratingAverage":"0.00","allowPhotoUpload":true},{"id":"121097","title":"Parkhaus Elisenhof","city":"M\u00fcnchen","street":"Luitpoldstr.","streetNumber":"3","location":{"lat":"48.1409303","lng":"11.5625947"},"media":{"listPictureUrl":"http:\/\/daten.mde3.de\/img\/photo_127872_178.jpg"},"isProduct":false,"detailUrl":"https:\/\/muenchenapis.de\/places\/api\/v2\/places\/121097.json","urlInPortal":"http:\/\/www.muenchen.de\/verkehr\/orte\/121097.html","ratingAverage":"0.00","allowPhotoUpload":true},{"id":"121100","title":"Tiefgarage Hotel ibis City","city":"M\u00fcnchen","street":"Dachauer Str.","streetNumber":"21","location":{"lat":"48.14403","lng":"11.55952"},"media":{"listPictureUrl":"http:\/\/daten.mde3.de\/img\/photo_127875_178.jpg"},"isProduct":false,"detailUrl":"https:\/\/muenchenapis.de\/places\/api\/v2\/places\/121100.json","urlInPortal":"http:\/\/www.muenchen.de\/verkehr\/orte\/121100.html","ratingAverage":"0.00","allowPhotoUpload":true},{"id":"1217898","title":"Tiefgarage Oberpollinger","city":"M\u00fcnchen","street":"Neuhauser Str.","streetNumber":"18","location":{"lat":"48.138771","lng":"11.56757"},"media":{"listPictureUrl":"http:\/\/daten.mde3.de\/img\/photo_131580_178.jpg"},"isProduct":false,"detailUrl":"https:\/\/muenchenapis.de\/places\/api\/v2\/places\/1217898.json","urlInPortal":"http:\/\/www.muenchen.de\/verkehr\/orte\/1217898.html","ratingAverage":"0.00","allowPhotoUpload":true},{"id":"121087","title":"Stachus-Park-Garagen","city":"M\u00fcnchen","street":"Karlsplatz","streetNumber":"6","location":{"lat":"48.13974","lng":"11.56641"},"media":{"listPictureUrl":"http:\/\/daten.mde3.de\/img\/photo_127863_178.jpg"},"isProduct":false,"detailUrl":"https:\/\/muenchenapis.de\/places\/api\/v2\/places\/121087.json","urlInPortal":"http:\/\/www.muenchen.de\/verkehr\/orte\/121087.html","ratingAverage":"0.00","allowPhotoUpload":true},{"id":"121088","title":"Pschorr Garage","city":"M\u00fcnchen","street":"Altheimer Eck","streetNumber":"16","location":{"lat":"48.137325","lng":"11.570128"},"media":{"listPictureUrl":"http:\/\/images.portal.muenchen.de\/upload\/media\/000\/000\/218\/604\/scaled-down\/0178x0117\/pschorr-garage.jpg"},"isProduct":false,"detailUrl":"https:\/\/muenchenapis.de\/places\/api\/v2\/places\/121088.json","urlInPortal":"http:\/\/www.muenchen.de\/verkehr\/orte\/121088.html","ratingAverage":"3.75","allowPhotoUpload":true},{"id":"121105","title":"Parkgarage Schranne M\u00fcnchen","city":"M\u00fcnchen","street":"Pr\u00e4lat-Zistl-Str.","streetNumber":"3","location":{"lat":"48.134563","lng":"11.574459"},"media":{"listPictureUrl":"http:\/\/daten.mde3.de\/img\/photo_127880_178.jpg"},"isProduct":false,"detailUrl":"https:\/\/muenchenapis.de\/places\/api\/v2\/places\/121105.json","urlInPortal":"http:\/\/www.muenchen.de\/verkehr\/orte\/121105.html","ratingAverage":"3.40","allowPhotoUpload":true},{"id":"121093","title":"City-Parkhaus F\u00e4rbergraben","city":"M\u00fcnchen","street":"F\u00e4rbergraben","streetNumber":"10","location":{"lat":"48.1372976","lng":"11.571501"},"media":{"listPictureUrl":"http:\/\/daten.mde3.de\/img\/photo_127868_178.jpg"},"isProduct":false,"detailUrl":"https:\/\/muenchenapis.de\/places\/api\/v2\/places\/121093.json","urlInPortal":"http:\/\/www.muenchen.de\/verkehr\/orte\/121093.html","ratingAverage":"2.33","allowPhotoUpload":true},{"id":"121096","title":"Marienplatz Gro\u00dfgarage","city":"M\u00fcnchen","street":"Rindermarkt","streetNumber":"16","location":{"lat":"48.136227","lng":"11.574723"},"media":{"listPictureUrl":"http:\/\/images.portal.muenchen.de\/upload\/media\/000\/000\/221\/011\/scaled-down\/0178x0117\/listing-parkgarage-marienplatz.jpg"},"isProduct":false,"detailUrl":"https:\/\/muenchenapis.de\/places\/api\/v2\/places\/121096.json","urlInPortal":"http:\/\/www.muenchen.de\/verkehr\/orte\/121096.html","ratingAverage":"2.30","allowPhotoUpload":true},{"id":"121108","title":"Parkgarage B\u00f6hringer","city":"M\u00fcnchen","street":"Baaderstr.","streetNumber":"6","location":{"lat":"48.1330593","lng":"11.5810631"},"media":{"listPictureUrl":"http:\/\/daten.mde3.de\/img\/photo_127883_178.jpg"},"isProduct":false,"detailUrl":"https:\/\/muenchenapis.de\/places\/api\/v2\/places\/121108.json","urlInPortal":"http:\/\/www.muenchen.de\/verkehr\/orte\/121108.html","ratingAverage":"5.00","allowPhotoUpload":true},{"id":"121099","title":"Parkgarage Rieger City","city":"M\u00fcnchen","street":"Frauenstr.","streetNumber":"38","location":{"lat":"48.1345268","lng":"11.5806805"},"media":{"listPictureUrl":"http:\/\/daten.mde3.de\/img\/photo_127874_178.jpg"},"isProduct":false,"detailUrl":"https:\/\/muenchenapis.de\/places\/api\/v2\/places\/121099.json","urlInPortal":"http:\/\/www.muenchen.de\/verkehr\/orte\/121099.html","ratingAverage":"2.00","allowPhotoUpload":true},{"id":"121101","title":"Parkgarage am Salvatorplatz","city":"M\u00fcnchen","street":"Salvatorplatz","streetNumber":"3","location":{"lat":"48.142269","lng":"11.57519"},"media":{"listPictureUrl":"http:\/\/daten.mde3.de\/img\/photo_127876_178.jpg"},"isProduct":false,"detailUrl":"https:\/\/muenchenapis.de\/places\/api\/v2\/places\/121101.json","urlInPortal":"http:\/\/www.muenchen.de\/verkehr\/orte\/121101.html","ratingAverage":"3.00","allowPhotoUpload":true},{"id":"121098","title":"Tiefgarage vor der Oper","city":"M\u00fcnchen","street":"Max-Joseph-Platz","streetNumber":"4","location":{"lat":"48.14049","lng":"11.57764"},"media":{"listPictureUrl":"http:\/\/daten.mde3.de\/img\/photo_127873_178.jpg"},"isProduct":false,"detailUrl":"https:\/\/muenchenapis.de\/places\/api\/v2\/places\/121098.json","urlInPortal":"http:\/\/www.muenchen.de\/verkehr\/orte\/121098.html","ratingAverage":"0.00","allowPhotoUpload":true},{"id":"121103","title":"Parkhaus am Hofbr\u00e4uhaus","city":"M\u00fcnchen","street":"Hochbr\u00fcckenstr.","streetNumber":"9","location":{"lat":"48.137275367085","lng":"11.58140633504"},"media":{"listPictureUrl":"http:\/\/daten.mde3.de\/img\/photo_127878_178.jpg"},"isProduct":false,"detailUrl":"https:\/\/muenchenapis.de\/places\/api\/v2\/places\/121103.json","urlInPortal":"http:\/\/www.muenchen.de\/verkehr\/orte\/121103.html","ratingAverage":"0.00","allowPhotoUpload":true},{"id":"1224057","title":"Parkhaus Holiday Inn\/Motorama","city":"M\u00fcnchen","street":"Hochstr.","streetNumber":"3","location":{"lat":"48.130607","lng":"11.589468"},"media":{"listPictureUrl":"http:\/\/daten.mde3.de\/img\/photo_131925_178.jpg"},"isProduct":false,"detailUrl":"https:\/\/muenchenapis.de\/places\/api\/v2\/places\/1224057.json","urlInPortal":"http:\/\/www.muenchen.de\/verkehr\/orte\/1224057.html","ratingAverage":"0.00","allowPhotoUpload":true},{"id":"1224056","title":"Parkgarage Gasteig","city":"M\u00fcnchen","street":"Rosenheimer Str.","streetNumber":"5","location":{"lat":"48.131005","lng":"11.590828"},"media":{"listPictureUrl":"http:\/\/daten.mde3.de\/img\/photo_131924_178.jpg"},"isProduct":false,"detailUrl":"https:\/\/muenchenapis.de\/places\/api\/v2\/places\/1224056.json","urlInPortal":"http:\/\/www.muenchen.de\/verkehr\/orte\/1224056.html","ratingAverage":"0.00","allowPhotoUpload":true},{"id":"1224045","title":"Park One Hilton M\u00fcnchen City","city":"M\u00fcnchen","street":"Rosenheimer Str.","streetNumber":"15 -17","location":{"lat":"48.13017","lng":"11.59276"},"media":{"listPictureUrl":"http:\/\/daten.mde3.de\/img\/photo_131913_178.jpg"},"isProduct":false,"detailUrl":"https:\/\/muenchenapis.de\/places\/api\/v2\/places\/1224045.json","urlInPortal":"http:\/\/www.muenchen.de\/verkehr\/orte\/1224045.html","ratingAverage":"0.00","allowPhotoUpload":true},{"id":"1224051","title":"Parkhaus Hofbr\u00e4ukeller","city":"M\u00fcnchen","street":"Innere Wiener Str.","streetNumber":"15","location":{"lat":"48.13395","lng":"11.59439"},"media":{"listPictureUrl":"http:\/\/daten.mde3.de\/img\/photo_131919_178.jpg"},"isProduct":false,"detailUrl":"https:\/\/muenchenapis.de\/places\/api\/v2\/places\/1224051.json","urlInPortal":"http:\/\/www.muenchen.de\/verkehr\/orte\/1224051.html","ratingAverage":"0.00","allowPhotoUpload":true},{"id":"1224061","title":"Karstadt am Nordbad","city":"M\u00fcnchen","street":"Schlei\u00dfheimer Str.","streetNumber":"93","location":{"lat":"48.15953256","lng":"11.56207277"},"media":{"listPictureUrl":"http:\/\/daten.mde3.de\/img\/photo_131929_178.jpg"},"isProduct":false,"detailUrl":"https:\/\/muenchenapis.de\/places\/api\/v2\/places\/1224061.json","urlInPortal":"http:\/\/www.muenchen.de\/verkehr\/orte\/1224061.html","ratingAverage":"0.00","allowPhotoUpload":true},{"id":"1224047","title":"Park One Amalien-Passage","city":"M\u00fcnchen","street":"T\u00fcrkenstr.","streetNumber":"84","location":{"lat":"48.1517361","lng":"11.5771485"},"media":{"listPictureUrl":"http:\/\/daten.mde3.de\/img\/photo_131915_178.jpg"},"isProduct":false,"detailUrl":"https:\/\/muenchenapis.de\/places\/api\/v2\/places\/1224047.json","urlInPortal":"http:\/\/www.muenchen.de\/verkehr\/orte\/1224047.html","ratingAverage":"0.00","allowPhotoUpload":true},{"id":"1224109","title":"Tiefgarage P&R Westfriedhof","city":"M\u00fcnchen","street":"Orpheusstr.","streetNumber":"1","location":{"lat":"48.1708526","lng":"11.5285203"},"media":{"listPictureUrl":"http:\/\/daten.mde3.de\/img\/photo_131950_178.jpg"},"isProduct":false,"detailUrl":"https:\/\/muenchenapis.de\/places\/api\/v2\/places\/1224109.json","urlInPortal":"http:\/\/www.muenchen.de\/verkehr\/orte\/1224109.html","ratingAverage":"0.00","allowPhotoUpload":true},{"id":"1224059","title":"Parkhaus Mediaworks","city":"M\u00fcnchen","street":"Rosenheimer Str.","streetNumber":"145 H-I","location":{"lat":"48.1211213","lng":"11.6062601"},"media":{"listPictureUrl":"http:\/\/daten.mde3.de\/img\/photo_131927_178.jpg"},"isProduct":false,"detailUrl":"https:\/\/muenchenapis.de\/places\/api\/v2\/places\/1224059.json","urlInPortal":"http:\/\/www.muenchen.de\/verkehr\/orte\/1224059.html","ratingAverage":"0.00","allowPhotoUpload":true},{"id":"1273627","title":"Parkwerk GmbH","city":"M\u00fcnchen","street":"Atelierstr.","streetNumber":"8","location":{"lat":"48.12527","lng":"11.605724"},"media":{"listPictureUrl":null},"isProduct":false,"detailUrl":"https:\/\/muenchenapis.de\/places\/api\/v2\/places\/1273627.json","urlInPortal":"http:\/\/www.muenchen.de\/verkehr\/orte\/1273627.html","ratingAverage":"0.00","allowPhotoUpload":true},{"id":"1224108","title":"Tiefgarage P&R Moosach","city":"M\u00fcnchen","street":"Memminger Platz","streetNumber":null,"location":{"lat":"48.1811","lng":"11.5051886"},"media":{"listPictureUrl":"http:\/\/daten.mde3.de\/img\/photo_131949_178.jpg"},"isProduct":false,"detailUrl":"https:\/\/muenchenapis.de\/places\/api\/v2\/places\/1224108.json","urlInPortal":"http:\/\/www.muenchen.de\/verkehr\/orte\/1224108.html","ratingAverage":"0.00","allowPhotoUpload":true},{"id":"1224106","title":"Tiefgarage Innsbrucker Ring","city":"M\u00fcnchen","street":"Bad-Schachener-Str.","streetNumber":"41","location":{"lat":"48.12051","lng":"11.6184996"},"media":{"listPictureUrl":"http:\/\/daten.mde3.de\/img\/photo_131947_178.jpg"},"isProduct":false,"detailUrl":"https:\/\/muenchenapis.de\/places\/api\/v2\/places\/1224106.json","urlInPortal":"http:\/\/www.muenchen.de\/verkehr\/orte\/1224106.html","ratingAverage":"0.00","allowPhotoUpload":true},{"id":"161621","title":"daseinstein Parkhaus","city":"M\u00fcnchen","street":"Bothestr.","streetNumber":null,"location":{"lat":"48.1361596","lng":"11.6131643"},"media":{"listPictureUrl":"http:\/\/daten.mde3.de\/img\/photo_128621_178.jpg"},"isProduct":false,"detailUrl":"https:\/\/muenchenapis.de\/places\/api\/v2\/places\/161621.json","urlInPortal":"http:\/\/www.muenchen.de\/verkehr\/orte\/161621.html","ratingAverage":"0.00","allowPhotoUpload":true},{"id":"1260859","title":"daseinstein Tiefgarage","city":"M\u00fcnchen","street":"Einsteinstr.","streetNumber":"130","location":{"lat":"48.13592611","lng":"11.61364808"},"media":{"listPictureUrl":null},"isProduct":false,"detailUrl":"https:\/\/muenchenapis.de\/places\/api\/v2\/places\/1260859.json","urlInPortal":"http:\/\/www.muenchen.de\/verkehr\/orte\/1260859.html","ratingAverage":"0.00","allowPhotoUpload":true},{"id":"1224060","title":"Karstadt Schwabing","city":"M\u00fcnchen","street":"Franzstr.","streetNumber":null,"location":{"lat":"48.1609124","lng":"11.5872914"},"media":{"listPictureUrl":"http:\/\/daten.mde3.de\/img\/photo_131928_178.jpg"},"isProduct":false,"detailUrl":"https:\/\/muenchenapis.de\/places\/api\/v2\/places\/1224060.json","urlInPortal":"http:\/\/www.muenchen.de\/verkehr\/orte\/1224060.html","ratingAverage":"0.00","allowPhotoUpload":true},{"id":"1224048","title":"Park One im MONA","city":"M\u00fcnchen","street":"Pelkovenstr.","streetNumber":"143 -147","location":{"lat":"48.1822449","lng":"11.5304177"},"media":{"listPictureUrl":"http:\/\/daten.mde3.de\/img\/photo_131916_178.jpg"},"isProduct":false,"detailUrl":"https:\/\/muenchenapis.de\/places\/api\/v2\/places\/1224048.json","urlInPortal":"http:\/\/www.muenchen.de\/verkehr\/orte\/1224048.html","ratingAverage":"0.00","allowPhotoUpload":true},{"id":"1224046","title":"Park One Hilton M\u00fcnchen Park","city":"M\u00fcnchen","street":"Am Tucherpark","streetNumber":"7","location":{"lat":"48.1531005","lng":"11.5990094"},"media":{"listPictureUrl":"http:\/\/daten.mde3.de\/img\/photo_131914_178.jpg"},"isProduct":false,"detailUrl":"https:\/\/muenchenapis.de\/places\/api\/v2\/places\/1224046.json","urlInPortal":"http:\/\/www.muenchen.de\/verkehr\/orte\/1224046.html","ratingAverage":"0.00","allowPhotoUpload":true},{"id":"1224097","title":"Olympia-Einkaufszentrum","city":"M\u00fcnchen","street":"Hanauer Str.","streetNumber":"68","location":{"lat":"48.18405","lng":"11.53224"},"media":{"listPictureUrl":"http:\/\/daten.mde3.de\/img\/photo_131939_178.jpg"},"isProduct":false,"detailUrl":"https:\/\/muenchenapis.de\/places\/api\/v2\/places\/1224097.json","urlInPortal":"http:\/\/www.muenchen.de\/verkehr\/orte\/1224097.html","ratingAverage":"0.00","allowPhotoUpload":true},{"id":"1224062","title":"Parkhaus Schwabing","city":"M\u00fcnchen","street":"Occamstr.","streetNumber":"20","location":{"lat":"48.1627","lng":"11.59031"},"media":{"listPictureUrl":"http:\/\/daten.mde3.de\/img\/photo_131930_178.jpg"},"isProduct":false,"detailUrl":"https:\/\/muenchenapis.de\/places\/api\/v2\/places\/1224062.json","urlInPortal":"http:\/\/www.muenchen.de\/verkehr\/orte\/1224062.html","ratingAverage":"0.00","allowPhotoUpload":true},{"id":"1224043","title":"BMW Parkhaus S\u00fcd","city":"M\u00fcnchen","street":"Petuelring","streetNumber":"130","location":{"lat":"48.17656677","lng":"11.56248346"},"media":{"listPictureUrl":"http:\/\/daten.mde3.de\/img\/photo_131911_178.jpg"},"isProduct":false,"detailUrl":"https:\/\/muenchenapis.de\/places\/api\/v2\/places\/1224043.json","urlInPortal":"http:\/\/www.muenchen.de\/verkehr\/orte\/1224043.html","ratingAverage":"0.00","allowPhotoUpload":true},{"id":"1224100","title":"BMW Parkhaus Nordost","city":"M\u00fcnchen","street":"Riesenfeldstr.","streetNumber":null,"location":{"lat":"48.18287998","lng":"11.56237884"},"media":{"listPictureUrl":"http:\/\/daten.mde3.de\/img\/photo_131941_178.jpg"},"isProduct":false,"detailUrl":"https:\/\/muenchenapis.de\/places\/api\/v2\/places\/1224100.json","urlInPortal":"http:\/\/www.muenchen.de\/verkehr\/orte\/1224100.html","ratingAverage":"0.00","allowPhotoUpload":true},{"id":"1224099","title":"BMW Parkhaus Nordwest","city":"M\u00fcnchen","street":"Moosacher Str.","streetNumber":"61","location":{"lat":"48.18579","lng":"11.55451"},"media":{"listPictureUrl":"http:\/\/daten.mde3.de\/img\/photo_131942_178.jpg"},"isProduct":false,"detailUrl":"https:\/\/muenchenapis.de\/places\/api\/v2\/places\/1224099.json","urlInPortal":"http:\/\/www.muenchen.de\/verkehr\/orte\/1224099.html","ratingAverage":"0.00","allowPhotoUpload":true},{"id":"1224098","title":"PEP Einkaufscenter","city":"M\u00fcnchen","street":"Ollenhauerstr.","streetNumber":"6","location":{"lat":"48.1012","lng":"11.64349"},"media":{"listPictureUrl":"http:\/\/daten.mde3.de\/img\/photo_131940_178.jpg"},"isProduct":false,"detailUrl":"https:\/\/muenchenapis.de\/places\/api\/v2\/places\/1224098.json","urlInPortal":"http:\/\/www.muenchen.de\/verkehr\/orte\/1224098.html","ratingAverage":"0.00","allowPhotoUpload":true},{"id":"1224091","title":"Parkhaus Rosenkavalierplatz","city":"M\u00fcnchen","street":"Elektrastr.","streetNumber":"3","location":{"lat":"48.1528304","lng":"11.6214425"},"media":{"listPictureUrl":"http:\/\/daten.mde3.de\/img\/photo_131936_178.jpg"},"isProduct":false,"detailUrl":"https:\/\/muenchenapis.de\/places\/api\/v2\/places\/1224091.json","urlInPortal":"http:\/\/www.muenchen.de\/verkehr\/orte\/1224091.html","ratingAverage":"0.00","allowPhotoUpload":true},{"id":"1224103","title":"Tiefgarage Hotel Marriott","city":"M\u00fcnchen","street":"Berliner Str.","streetNumber":"93","location":{"lat":"48.17453","lng":"11.59262"},"media":{"listPictureUrl":"http:\/\/daten.mde3.de\/img\/photo_131944_178.jpg"},"isProduct":false,"detailUrl":"https:\/\/muenchenapis.de\/places\/api\/v2\/places\/1224103.json","urlInPortal":"http:\/\/www.muenchen.de\/verkehr\/orte\/1224103.html","ratingAverage":"0.00","allowPhotoUpload":true},{"id":"1224055","title":"Tiefgarage Ibis\/Suite Novotel","city":"M\u00fcnchen","street":"Lyonel-Feininger-Str.","streetNumber":"20","location":{"lat":"48.1796264","lng":"11.5931016"},"media":{"listPictureUrl":"http:\/\/daten.mde3.de\/img\/photo_131923_178.jpg"},"isProduct":false,"detailUrl":"https:\/\/muenchenapis.de\/places\/api\/v2\/places\/1224055.json","urlInPortal":"http:\/\/www.muenchen.de\/verkehr\/orte\/1224055.html","ratingAverage":"0.00","allowPhotoUpload":true},{"id":"1224111","title":"The M.Pire","city":"M\u00fcnchen","street":"Marcel-Breuer-Str.","streetNumber":"2","location":{"lat":"48.181298","lng":"11.5970496"},"media":{"listPictureUrl":"http:\/\/daten.mde3.de\/img\/photo_131952_178.jpg"},"isProduct":false,"detailUrl":"https:\/\/muenchenapis.de\/places\/api\/v2\/places\/1224111.json","urlInPortal":"http:\/\/www.muenchen.de\/verkehr\/orte\/1224111.html","ratingAverage":"0.00","allowPhotoUpload":true},{"id":"1224095","title":"BMW Parkhaus FIZ","city":"M\u00fcnchen","street":"Knorrstr.","streetNumber":"147","location":{"lat":"48.1938086","lng":"11.5706652"},"media":{"listPictureUrl":"http:\/\/daten.mde3.de\/img\/photo_131938_178.jpg"},"isProduct":false,"detailUrl":"https:\/\/muenchenapis.de\/places\/api\/v2\/places\/1224095.json","urlInPortal":"http:\/\/www.muenchen.de\/verkehr\/orte\/1224095.html","ratingAverage":"0.00","allowPhotoUpload":true},{"id":"1224094","title":"BMW Parkhaus Hufelandstr.","city":"M\u00fcnchen","street":"Hufelandstr.","streetNumber":"5","location":{"lat":"48.1924141","lng":"11.5749566"},"media":{"listPictureUrl":"http:\/\/daten.mde3.de\/img\/photo_131937_178.jpg"},"isProduct":false,"detailUrl":"https:\/\/muenchenapis.de\/places\/api\/v2\/places\/1224094.json","urlInPortal":"http:\/\/www.muenchen.de\/verkehr\/orte\/1224094.html","ratingAverage":"0.00","allowPhotoUpload":true},{"id":"1224049","title":"Park One im MIRA","city":"M\u00fcnchen","street":"Schlei\u00dfheimer Str.","streetNumber":"506","location":{"lat":"48.2131458","lng":"11.563606"},"media":{"listPictureUrl":"http:\/\/daten.mde3.de\/img\/photo_131917_178.jpg"},"isProduct":false,"detailUrl":"https:\/\/muenchenapis.de\/places\/api\/v2\/places\/1224049.json","urlInPortal":"http:\/\/www.muenchen.de\/verkehr\/orte\/1224049.html","ratingAverage":"0.00","allowPhotoUpload":true},{"id":"1224052","title":"Tiefgarage MOC","city":"M\u00fcnchen","street":"Lilienthalallee","streetNumber":"40","location":{"lat":"48.19784","lng":"11.61132"},"media":{"listPictureUrl":"http:\/\/daten.mde3.de\/img\/photo_131920_178.jpg"},"isProduct":false,"detailUrl":"https:\/\/muenchenapis.de\/places\/api\/v2\/places\/1224052.json","urlInPortal":"http:\/\/www.muenchen.de\/verkehr\/orte\/1224052.html","ratingAverage":"0.00","allowPhotoUpload":true},{"id":"1224058","title":"Parkhaus Kieferngarten","city":"M\u00fcnchen","street":"Kieferngartenstr.","streetNumber":"14","location":{"lat":"48.20206","lng":"11.6127"},"media":{"listPictureUrl":"http:\/\/daten.mde3.de\/img\/photo_131926_178.jpg"},"isProduct":false,"detailUrl":"https:\/\/muenchenapis.de\/places\/api\/v2\/places\/1224058.json","urlInPortal":"http:\/\/www.muenchen.de\/verkehr\/orte\/1224058.html","ratingAverage":"0.00","allowPhotoUpload":true},{"id":"72297","title":"Tiefgarage Riem Arcaden","city":"M\u00fcnchen","street":"Willy-Brandt-Platz","streetNumber":"5","location":{"lat":"48.1332324","lng":"11.6922217"},"media":{"listPictureUrl":"http:\/\/daten.mde3.de\/img\/photo_129322_178.jpg"},"isProduct":false,"detailUrl":"https:\/\/muenchenapis.de\/places\/api\/v2\/places\/72297.json","urlInPortal":"http:\/\/www.muenchen.de\/verkehr\/orte\/72297.html","ratingAverage":"2.00","allowPhotoUpload":true},{"id":"1224054","title":"Parkhaus Messe M\u00fcnchen","city":"M\u00fcnchen","street":"Paul-Henri-Spaak-Str.","streetNumber":"6","location":{"lat":"48.1393857","lng":"11.6903941"},"media":{"listPictureUrl":"http:\/\/daten.mde3.de\/img\/photo_131922_178.jpg"},"isProduct":false,"detailUrl":"https:\/\/muenchenapis.de\/places\/api\/v2\/places\/1224054.json","urlInPortal":"http:\/\/www.muenchen.de\/verkehr\/orte\/1224054.html","ratingAverage":"0.00","allowPhotoUpload":true},{"id":"1224053","title":"Parkhaus P&R Fr\u00f6ttmaning","city":"M\u00fcnchen","street":"Werner-Heisenberg-Allee","streetNumber":"21","location":{"lat":"48.21037","lng":"11.62024"},"media":{"listPictureUrl":"http:\/\/daten.mde3.de\/img\/photo_131921_178.jpg"},"isProduct":false,"detailUrl":"https:\/\/muenchenapis.de\/places\/api\/v2\/places\/1224053.json","urlInPortal":"http:\/\/www.muenchen.de\/verkehr\/orte\/1224053.html","ratingAverage":"0.00","allowPhotoUpload":true},{"id":"1224050","title":"Parkhaus P&R Messestadt Ost","city":"M\u00fcnchen","street":"Am Messefreigel\u00e4nde","streetNumber":null,"location":{"lat":"48.1358231","lng":"11.7059815"},"media":{"listPictureUrl":"http:\/\/daten.mde3.de\/img\/photo_131918_178.jpg"},"isProduct":false,"detailUrl":"https:\/\/muenchenapis.de\/places\/api\/v2\/places\/1224050.json","urlInPortal":"http:\/\/www.muenchen.de\/verkehr\/orte\/1224050.html","ratingAverage":"0.00","allowPhotoUpload":true},{"id":"1224044","title":"Parkhaus Allianz Arena","city":"M\u00fcnchen","street":"Werner-Heisenberg-Allee","streetNumber":"25","location":{"lat":"48.2186","lng":"11.62362"},"media":{"listPictureUrl":"http:\/\/daten.mde3.de\/img\/photo_131912_178.jpg"},"isProduct":false,"detailUrl":"https:\/\/muenchenapis.de\/places\/api\/v2\/places\/1224044.json","urlInPortal":"http:\/\/www.muenchen.de\/verkehr\/orte\/1224044.html","ratingAverage":"0.00","allowPhotoUpload":true}],"localAd":null}