[{"id":"0", "name":"Bahnhof","latitude":"50.7339257", "longitude":"7.0936335", "totalParkingLots":"114", "freeParkingLots":"000", "trend":"3", "status":"Closed", "timestamp":"23.04.2018 21:13", "prices":"1 € per hour","type":"Car park", "numberOfDisabledParkingLots":"Unknown", "freeDisabledParkingLots":"Unknown", "numberOfElectroParkingLots":"Unknown","freeOfElectroParkingLots":"Unknown", "numberOfFamilyParkingLots":"Unknown", "freeOfFamilyParkingLots":"Unknown", "numberOfWomenParkingLots":"Unknown","freeOfWomenParkingLots":"Unknown", "numberOfPremiumParkingLots":"Unknown", "freeOfPremiumParkingLots":"Unknown","premiumParkingLotPrices":"Unknown", "openingTimes":"Unknown", "address":{ "country":"Unknown", "state":"Unknown","city":"Unknown", "zipCode":"Unknown", "street":"Unknown", "houseNumber":"Unknown", "additionalInformation":"Unknown" }, "operator":"Unknown"},{"id":"1", "name":"Beethoven","latitude":"50.7394424", "longitude":"7.1010949", "totalParkingLots":"416", "freeParkingLots":"346", "trend":"3", "status":"Open", "timestamp":"23.04.2018 21:13", "prices":"1 € per hour","type":"Car park", "numberOfDisabledParkingLots":"Unknown", "freeDisabledParkingLots":"Unknown", "numberOfElectroParkingLots":"Unknown","freeOfElectroParkingLots":"Unknown", "numberOfFamilyParkingLots":"Unknown", "freeOfFamilyParkingLots":"Unknown", "numberOfWomenParkingLots":"Unknown","freeOfWomenParkingLots":"Unknown", "numberOfPremiumParkingLots":"Unknown", "freeOfPremiumParkingLots":"Unknown","premiumParkingLotPrices":"Unknown", "openingTimes":"Unknown", "address":{ "country":"Unknown", "state":"Unknown","city":"Unknown", "zipCode":"Unknown", "street":"Unknown", "houseNumber":"Unknown", "additionalInformation":"Unknown" }, "operator":"Unknown"},{"id":"2", "name":"Friedensplatz","latitude":"50.7369235", "longitude":"7.0946575", "totalParkingLots":"810", "freeParkingLots":"634", "trend":"2", "status":"Open", "timestamp":"23.04.2018 21:13", "prices":"1 € per hour","type":"Car park", "numberOfDisabledParkingLots":"Unknown", "freeDisabledParkingLots":"Unknown", "numberOfElectroParkingLots":"Unknown","freeOfElectroParkingLots":"Unknown", "numberOfFamilyParkingLots":"Unknown", "freeOfFamilyParkingLots":"Unknown", "numberOfWomenParkingLots":"Unknown","freeOfWomenParkingLots":"Unknown", "numberOfPremiumParkingLots":"Unknown", "freeOfPremiumParkingLots":"Unknown","premiumParkingLotPrices":"Unknown", "openingTimes":"Unknown", "address":{ "country":"Unknown", "state":"Unknown","city":"Unknown", "zipCode":"Unknown", "street":"Unknown", "houseNumber":"Unknown", "additionalInformation":"Unknown" }, "operator":"Unknown"},{"id":"3", "name":"Markt","latitude":"50.7344313", "longitude":"7.101642", "totalParkingLots":"305", "freeParkingLots":"144", "trend":"3", "status":"Open", "timestamp":"23.04.2018 21:13", "prices":"1 € per hour","type":"Car park", "numberOfDisabledParkingLots":"Unknown", "freeDisabledParkingLots":"Unknown", "numberOfElectroParkingLots":"Unknown","freeOfElectroParkingLots":"Unknown", "numberOfFamilyParkingLots":"Unknown", "freeOfFamilyParkingLots":"Unknown", "numberOfWomenParkingLots":"Unknown","freeOfWomenParkingLots":"Unknown", "numberOfPremiumParkingLots":"Unknown", "freeOfPremiumParkingLots":"Unknown","premiumParkingLotPrices":"Unknown", "openingTimes":"Unknown", "address":{ "country":"Unknown", "state":"Unknown","city":"Unknown", "zipCode":"Unknown", "street":"Unknown", "houseNumber":"Unknown", "additionalInformation":"Unknown" }, "operator":"Unknown"},{"id":"4", "name":"Muensterplatz","latitude":"50.7357418", "longitude":"7.0921255", "totalParkingLots":"312", "freeParkingLots":"247", "trend":"3", "status":"Open", "timestamp":"23.04.2018 21:13", "prices":"1 € per hour","type":"Car park", "numberOfDisabledParkingLots":"Unknown", "freeDisabledParkingLots":"Unknown", "numberOfElectroParkingLots":"Unknown","freeOfElectroParkingLots":"Unknown", "numberOfFamilyParkingLots":"Unknown", "freeOfFamilyParkingLots":"Unknown", "numberOfWomenParkingLots":"Unknown","freeOfWomenParkingLots":"Unknown", "numberOfPremiumParkingLots":"Unknown", "freeOfPremiumParkingLots":"Unknown","premiumParkingLotPrices":"Unknown", "openingTimes":"Unknown", "address":{ "country":"Unknown", "state":"Unknown","city":"Unknown", "zipCode":"Unknown", "street":"Unknown", "houseNumber":"Unknown", "additionalInformation":"Unknown" }, "operator":"Unknown"},{"id":"5", "name":"Stadthaus","latitude":"50.7378037", "longitude":"7.0591477", "totalParkingLots":"320", "freeParkingLots":"091", "trend":"2", "status":"Open", "timestamp":"23.04.2018 21:13", "prices":"1 € per hour","type":"Car park", "numberOfDisabledParkingLots":"Unknown", "freeDisabledParkingLots":"Unknown", "numberOfElectroParkingLots":"Unknown","freeOfElectroParkingLots":"Unknown", "numberOfFamilyParkingLots":"Unknown", "freeOfFamilyParkingLots":"Unknown", "numberOfWomenParkingLots":"Unknown","freeOfWomenParkingLots":"Unknown", "numberOfPremiumParkingLots":"Unknown", "freeOfPremiumParkingLots":"Unknown","premiumParkingLotPrices":"Unknown", "openingTimes":"Unknown", "address":{ "country":"Unknown", "state":"Unknown","city":"Unknown", "zipCode":"Unknown", "street":"Unknown", "houseNumber":"Unknown", "additionalInformation":"Unknown" }, "operator":"Unknown"}]