[{"id":"0", "name":"Bahnhof","latitude":"50.7339257", "longitude":"7.0936335", "totalParkingLots":"114", "freeParkingLots":"000", "height":"2,00 m", "trend":"Less free parking lots are available", "status":"Closed", "timestamp":"10.05.2018 16:44", "prices":"1. and 2. hour: 1,30 Ä; 3. hour: 1,50 Ä; 4. and 5. hour: 2,00 Ä; from 6. hour: 2,50 Ä; night tarif: 1,00 Ä across-the-board;Tarif on sundays and holidays: 0,50 Ä per started hour; Maximum tarif: 25,00 Ä (on work days), 7,00 Ä (on sundays and holidays)","type":"Car park", "numberOfDisabledParkingLots":"Unknown", "freeDisabledParkingLots":"Unknown", "numberOfElectroParkingLots":"Unknown", "freeOfElectroParkingLots":"Unknown", "numberOfFamilyParkingLots":"Unknown", "freeOfFamilyParkingLots":"Unknown", "numberOfWomenParkingLots":"Unknown", "freeOfWomenParkingLots":"Unknown", "numberOfPremiumParkingLots":"Unknown", "freeOfPremiumParkingLots":"Unknown", "premiumParkingLotPrices":"Unknown", "openingTimes":"Currently closed", "address":{ "country":"Germany", "state":"North Rhine-Westphalia", "city":"Bonn", "zipCode":"53111", "street":"M¸nsterstraﬂe", "houseNumber":"Unknown", "additionalInformation":"Unknown" }, "operator":"Bonner City Parkraum GmbH", "telephone":"02 28 / 96 99 191", "website": "http://bcp-bonn.de/bahnhofgarage/"},{"id":"1", "name":"Beethoven","latitude":"50.7394424", "longitude":"7.1010949", "totalParkingLots":"416", "freeParkingLots":"378", "height":"1,90 m", "trend":"Less free parking lots are available", "status":"Open", "timestamp":"10.05.2018 16:44", "prices":"1. to 3. hour: 1,20 Ä; 4. hour: 1,50 Ä; 5. and 6. hour: 2,00 Ä; from the 7. hour: 2,50 Ä; Night tarif: 1,00 Ä across-the-board;Tarif on sundays and holidays: 0,50 Ä per started hour; Maximum tarif: 15,00 Ä (on work days), 7,00 Ä (on sundays and holidays); Extra price for some events: 3,00 Ä","type":"Car park", "numberOfDisabledParkingLots":"Unknown", "freeDisabledParkingLots":"Unknown", "numberOfElectroParkingLots":"Unknown", "freeOfElectroParkingLots":"Unknown", "numberOfFamilyParkingLots":"Unknown", "freeOfFamilyParkingLots":"Unknown", "numberOfWomenParkingLots":"Unknown", "freeOfWomenParkingLots":"Unknown", "numberOfPremiumParkingLots":"Unknown", "freeOfPremiumParkingLots":"Unknown", "premiumParkingLotPrices":"Unknown", "openingTimes":"Monday to Thursday: 7:00 am to 1:00 am; Friday and Saturday: 7:00 am to 2:30 am; On sundays and holidays: 9:00 am to 1:00 am", "address":{ "country":"Germany", "state":"North Rhine-Westphalia", "city":"Bonn", "zipCode":"53111", "street":"Engeltalstraﬂe", "houseNumber":"Unknown", "additionalInformation":"Unknown" }, "operator":"Bonner City Parkraum GmbH", "telephone":"02 28 / 96 99 191", "website": "http://bcp-bonn.de/beethovenparkhaus/"},{"id":"2", "name":"Friedensplatz","latitude":"50.7369235", "longitude":"7.0946575", "totalParkingLots":"810", "freeParkingLots":"641", "height":"1,80 m", "trend":"Less free parking lots are available", "status":"Open", "timestamp":"10.05.2018 16:44", "prices":"1. and 2. hour: 1,30 Ä; 3. hour: 1,50 Ä; 4. and 5. hour: 2,00 Ä; from 6. hour: 2,50 Ä; night tarif: 1,00 Ä across-the-board;Tarif on sundays and holidays: 0,50 Ä per started hour; Maximum tarif: 25,00 Ä (on work days), 7,00 Ä (on sundays and holidays)","type":"Car park", "numberOfDisabledParkingLots":"Unknown", "freeDisabledParkingLots":"Unknown", "numberOfElectroParkingLots":"Unknown", "freeOfElectroParkingLots":"Unknown", "numberOfFamilyParkingLots":"Unknown", "freeOfFamilyParkingLots":"Unknown", "numberOfWomenParkingLots":"Unknown", "freeOfWomenParkingLots":"Unknown", "numberOfPremiumParkingLots":"Unknown", "freeOfPremiumParkingLots":"Unknown", "premiumParkingLotPrices":"Unknown", "openingTimes":"Monday to Thursday: 7:00 am to 1:00 am; Friday and Saturday: 7:00 am to 2:30 am; On sundays and holidays: 9:00 am to 1:00 am", "address":{ "country":"Germany", "state":"North Rhine-Westphalia", "city":"Bonn", "zipCode":"53111", "street":"Oxfordstraﬂe", "houseNumber":"Unknown", "additionalInformation":"Unknown" }, "operator":"Bonner City Parkraum GmbH", "telephone":"02 28 / 96 99 191", "website": "http://bcp-bonn.de/friedensplatzgarage/"},{"id":"3", "name":"Markt","latitude":"50.7344313", "longitude":"7.101642", "totalParkingLots":"305", "freeParkingLots":"185", "height":"1,80 m", "trend":"Less free parking lots are available", "status":"Open", "timestamp":"10.05.2018 16:44", "prices":"1. hour: 1,30 Ä; 2. hour: 1,40 Ä; 3. hour: 1,50 Ä; 4. and 5. hour: 2,00 Ä; from 6. hour: 2,50 Ä; night tarif: 1,00 Ä across-the-board;Tarif on sundays and holidays: 0,50 Ä per started hour; Maximum tarif: 25,00 Ä (on work days), 7,00 Ä (on sundays and holidays)","type":"Car park", "numberOfDisabledParkingLots":"Unknown", "freeDisabledParkingLots":"Unknown", "numberOfElectroParkingLots":"Unknown", "freeOfElectroParkingLots":"Unknown", "numberOfFamilyParkingLots":"Unknown", "freeOfFamilyParkingLots":"Unknown", "numberOfWomenParkingLots":"Unknown", "freeOfWomenParkingLots":"Unknown", "numberOfPremiumParkingLots":"Unknown", "freeOfPremiumParkingLots":"Unknown", "premiumParkingLotPrices":"Unknown", "openingTimes":"Open 24 hours a day", "address":{ "country":"Germany", "state":"North Rhine-Westphalia", "city":"Bonn", "zipCode":"53111", "street":"Stockenstraﬂe", "houseNumber":"Unknown", "additionalInformation":"Unknown" }, "operator":"Bonner City Parkraum GmbH", "telephone":"02 28 / 96 99 191", "website": "http://bcp-bonn.de/marktgarage/"},{"id":"4", "name":"Muensterplatz","latitude":"50.7357418", "longitude":"7.0921255", "totalParkingLots":"312", "freeParkingLots":"261", "height":"2,00 m", "trend":"Less free parking lots are available", "status":"Open", "timestamp":"10.05.2018 16:44", "prices":"1. hour: 1,30 Ä; 2. hour: 1,40 Ä; 3. hour: 1,50 Ä; 4. and 5. hour: 2,00 Ä; from 6. hour: 2,50 Ä; night tarif: 1,00 Ä across-the-board;Tarif on sundays and holidays: 0,50 Ä per started hour; Maximum tarif: 25,00 Ä (on work days), 7,00 Ä (on sundays and holidays)","type":"Car park", "numberOfDisabledParkingLots":"Unknown", "freeDisabledParkingLots":"Unknown", "numberOfElectroParkingLots":"Unknown", "freeOfElectroParkingLots":"Unknown", "numberOfFamilyParkingLots":"Unknown", "freeOfFamilyParkingLots":"Unknown", "numberOfWomenParkingLots":"Unknown", "freeOfWomenParkingLots":"Unknown", "numberOfPremiumParkingLots":"Unknown", "freeOfPremiumParkingLots":"Unknown", "premiumParkingLotPrices":"Unknown", "openingTimes":"Monday to Thursday: 7:00 am to 1:00 am; Friday and Saturday: 7:00 am to 2:30 am; On sundays and holidays: 9:00 am to 1:00 am", "address":{ "country":"Germany", "state":"North Rhine-Westphalia", "city":"Bonn", "zipCode":"53111", "street":"Budapester Straﬂe", "houseNumber":"Unknown", "additionalInformation":"Unknown" }, "operator":"Bonner City Parkraum GmbH", "telephone":"02 28 / 96 99 191", "website": "http://bcp-bonn.de/muensterplatzgarage/"},{"id":"5", "name":"Stadthaus","latitude":"50.7378037", "longitude":"7.0591477", "totalParkingLots":"320", "freeParkingLots":"147", "height":"2,10 m", "trend":"Less free parking lots are available", "status":"Open", "timestamp":"10.05.2018 16:44", "prices":"1. and 2. hour: 1,30 Ä; 3. hour: 1,50 Ä; 4. and 5. hour: 2,00 Ä; from 6. hour: 2,50 Ä; night tarif: 1,00 Ä across-the-board;Tarif on sundays and holidays: 0,50 Ä per started hour; Maximum tarif: 25,00 Ä (on work days), 7,00 Ä (on sundays and holidays)","type":"Car park", "numberOfDisabledParkingLots":"Unknown", "freeDisabledParkingLots":"Unknown", "numberOfElectroParkingLots":"Unknown", "freeOfElectroParkingLots":"Unknown", "numberOfFamilyParkingLots":"Unknown", "freeOfFamilyParkingLots":"Unknown", "numberOfWomenParkingLots":"Unknown", "freeOfWomenParkingLots":"Unknown", "numberOfPremiumParkingLots":"Unknown", "freeOfPremiumParkingLots":"Unknown", "premiumParkingLotPrices":"Unknown", "openingTimes":"Open 24 hours a day", "address":{ "country":"Germany", "state":"North Rhine-Westphalia", "city":"Bonn", "zipCode":"53111", "street":"Weiherstraﬂe", "houseNumber":"Unknown", "additionalInformation":"Unknown" }, "operator":"Bonner City Parkraum GmbH", "telephone":"02 28 / 96 99 191", "website": "http://bcp-bonn.de/stadthausgarage/"},{"id":"6", "name":"Zeil", "latitude":"Unknown", "longitude":"Unknown", "totalParkingLots":"1415", "freeParkingLots":"Unknown", "height":"Unknown", "trend":"Unknown", "status":"Unknown", "timestamp":"2018-05-10T16:46:00.000+02:00", "prices":"Unknown", "type":"Car park area", "numberOfDisabledParkingLots":"Unknown", "freeDisabledParkingLots":"Unknown", "numberOfElectroParkingLots":"Unknown", "freeOfElectroParkingLots":"Unknown", "numberOfFamilyParkingLots":"Unknown", "freeOfFamilyParkingLots":"Unknown", "numberOfWomenParkingLots":"Unknown", "freeOfWomenParkingLots":"Unknown", "numberOfPremiumParkingLots":"Unknown", "freeOfPremiumParkingLots":"Unknown", "premiumParkingLotPrices":"Unknown", "openingTimes":"Unknown", "address":{ "country":"Germany", "state":"Hessen", "city":"Frankfurt", "zipCode":"Unknown", "street":"Unknown", "houseNumber":"Unknown", "additionalInformation":"Unknown" }, "operator":"Unknown", "telephone":"Unknown", "website": "Unknown"},{"id":"7", "name":"Dom / Rˆmer", "latitude":"Unknown", "longitude":"Unknown", "totalParkingLots":"273", "freeParkingLots":"Unknown", "height":"Unknown", "trend":"Unknown", "status":"Unknown", "timestamp":"2018-05-10T16:46:00.000+02:00", "prices":"Unknown", "type":"Car park area", "numberOfDisabledParkingLots":"Unknown", "freeDisabledParkingLots":"Unknown", "numberOfElectroParkingLots":"Unknown", "freeOfElectroParkingLots":"Unknown", "numberOfFamilyParkingLots":"Unknown", "freeOfFamilyParkingLots":"Unknown", "numberOfWomenParkingLots":"Unknown", "freeOfWomenParkingLots":"Unknown", "numberOfPremiumParkingLots":"Unknown", "freeOfPremiumParkingLots":"Unknown", "premiumParkingLotPrices":"Unknown", "openingTimes":"Unknown", "address":{ "country":"Germany", "state":"Hessen", "city":"Frankfurt", "zipCode":"Unknown", "street":"Unknown", "houseNumber":"Unknown", "additionalInformation":"Unknown" }, "operator":"Unknown", "telephone":"Unknown", "website": "Unknown"},{"id":"8", "name":"Anlagenring", "latitude":"Unknown", "longitude":"Unknown", "totalParkingLots":"1466", "freeParkingLots":"Unknown", "height":"Unknown", "trend":"Unknown", "status":"Unknown", "timestamp":"2018-05-10T16:46:00.000+02:00", "prices":"Unknown", "type":"Car park area", "numberOfDisabledParkingLots":"Unknown", "freeDisabledParkingLots":"Unknown", "numberOfElectroParkingLots":"Unknown", "freeOfElectroParkingLots":"Unknown", "numberOfFamilyParkingLots":"Unknown", "freeOfFamilyParkingLots":"Unknown", "numberOfWomenParkingLots":"Unknown", "freeOfWomenParkingLots":"Unknown", "numberOfPremiumParkingLots":"Unknown", "freeOfPremiumParkingLots":"Unknown", "premiumParkingLotPrices":"Unknown", "openingTimes":"Unknown", "address":{ "country":"Germany", "state":"Hessen", "city":"Frankfurt", "zipCode":"Unknown", "street":"Unknown", "houseNumber":"Unknown", "additionalInformation":"Unknown" }, "operator":"Unknown", "telephone":"Unknown", "website": "Unknown"},{"id":"9", "name":"Mainzer Landstraﬂe", "latitude":"Unknown", "longitude":"Unknown", "totalParkingLots":"543", "freeParkingLots":"Unknown", "height":"Unknown", "trend":"Unknown", "status":"Unknown", "timestamp":"2018-05-10T16:46:00.000+02:00", "prices":"Unknown", "type":"Car park area", "numberOfDisabledParkingLots":"Unknown", "freeDisabledParkingLots":"Unknown", "numberOfElectroParkingLots":"Unknown", "freeOfElectroParkingLots":"Unknown", "numberOfFamilyParkingLots":"Unknown", "freeOfFamilyParkingLots":"Unknown", "numberOfWomenParkingLots":"Unknown", "freeOfWomenParkingLots":"Unknown", "numberOfPremiumParkingLots":"Unknown", "freeOfPremiumParkingLots":"Unknown", "premiumParkingLotPrices":"Unknown", "openingTimes":"Unknown", "address":{ "country":"Germany", "state":"Hessen", "city":"Frankfurt", "zipCode":"Unknown", "street":"Unknown", "houseNumber":"Unknown", "additionalInformation":"Unknown" }, "operator":"Unknown", "telephone":"Unknown", "website": "Unknown"},{"id":"10", "name":"Bahnhofsviertel", "latitude":"Unknown", "longitude":"Unknown", "totalParkingLots":"820", "freeParkingLots":"Unknown", "height":"Unknown", "trend":"Unknown", "status":"Unknown", "timestamp":"2018-05-10T16:46:00.000+02:00", "prices":"Unknown", "type":"Car park area", "numberOfDisabledParkingLots":"Unknown", "freeDisabledParkingLots":"Unknown", "numberOfElectroParkingLots":"Unknown", "freeOfElectroParkingLots":"Unknown", "numberOfFamilyParkingLots":"Unknown", "freeOfFamilyParkingLots":"Unknown", "numberOfWomenParkingLots":"Unknown", "freeOfWomenParkingLots":"Unknown", "numberOfPremiumParkingLots":"Unknown", "freeOfPremiumParkingLots":"Unknown", "premiumParkingLotPrices":"Unknown", "openingTimes":"Unknown", "address":{ "country":"Germany", "state":"Hessen", "city":"Frankfurt", "zipCode":"Unknown", "street":"Unknown", "houseNumber":"Unknown", "additionalInformation":"Unknown" }, "operator":"Unknown", "telephone":"Unknown", "website": "Unknown"},{"id":"11", "name":"Karstadt", "latitude":"Unknown", "longitude":"Unknown", "totalParkingLots":"0", "freeParkingLots":"Unknown", "height":"Unknown", "trend":"Unknown", "status":"Closed", "timestamp":"2018-05-10T16:46:00.000+02:00", "prices":"Unknown", "type":"Car park", "numberOfDisabledParkingLots":"Unknown", "freeDisabledParkingLots":"Unknown", "numberOfElectroParkingLots":"Unknown", "freeOfElectroParkingLots":"Unknown", "numberOfFamilyParkingLots":"Unknown", "freeOfFamilyParkingLots":"Unknown", "numberOfWomenParkingLots":"Unknown", "freeOfWomenParkingLots":"Unknown", "numberOfPremiumParkingLots":"Unknown", "freeOfPremiumParkingLots":"Unknown", "premiumParkingLotPrices":"Unknown", "openingTimes":"Unknown", "address":{ "country":"Germany", "state":"Hessen", "city":"Frankfurt", "zipCode":"Unknown", "street":"Unknown", "houseNumber":"Unknown", "additionalInformation":"Unknown" }, "operator":"Unknown", "telephone":"Unknown", "website": "Unknown"},{"id":"12", "name":"Am Gericht", "latitude":"Unknown", "longitude":"Unknown", "totalParkingLots":"680", "freeParkingLots":"527", "height":"Unknown", "trend":"Unknown", "status":"Open", "timestamp":"2018-05-10T16:46:00.000+02:00", "prices":"Unknown", "type":"Car park", "numberOfDisabledParkingLots":"Unknown", "freeDisabledParkingLots":"Unknown", "numberOfElectroParkingLots":"Unknown", "freeOfElectroParkingLots":"Unknown", "numberOfFamilyParkingLots":"Unknown", "freeOfFamilyParkingLots":"Unknown", "numberOfWomenParkingLots":"Unknown", "freeOfWomenParkingLots":"Unknown", "numberOfPremiumParkingLots":"Unknown", "freeOfPremiumParkingLots":"Unknown", "premiumParkingLotPrices":"Unknown", "openingTimes":"Unknown", "address":{ "country":"Germany", "state":"Hessen", "city":"Frankfurt", "zipCode":"Unknown", "street":"Unknown", "houseNumber":"Unknown", "additionalInformation":"Unknown" }, "operator":"Unknown", "telephone":"Unknown", "website": "Unknown"},{"id":"13", "name":"MyZeil", "latitude":"Unknown", "longitude":"Unknown", "totalParkingLots":"905", "freeParkingLots":"610", "height":"Unknown", "trend":"Unknown", "status":"Open", "timestamp":"2018-05-10T16:46:00.000+02:00", "prices":"Unknown", "type":"Car park", "numberOfDisabledParkingLots":"Unknown", "freeDisabledParkingLots":"Unknown", "numberOfElectroParkingLots":"Unknown", "freeOfElectroParkingLots":"Unknown", "numberOfFamilyParkingLots":"Unknown", "freeOfFamilyParkingLots":"Unknown", "numberOfWomenParkingLots":"Unknown", "freeOfWomenParkingLots":"Unknown", "numberOfPremiumParkingLots":"Unknown", "freeOfPremiumParkingLots":"Unknown", "premiumParkingLotPrices":"Unknown", "openingTimes":"Unknown", "address":{ "country":"Germany", "state":"Hessen", "city":"Frankfurt", "zipCode":"Unknown", "street":"Unknown", "houseNumber":"Unknown", "additionalInformation":"Unknown" }, "operator":"Unknown", "telephone":"Unknown", "website": "Unknown"},{"id":"14", "name":"Konrad-Adenauer-Straﬂe", "latitude":"Unknown", "longitude":"Unknown", "totalParkingLots":"609", "freeParkingLots":"278", "height":"Unknown", "trend":"Unknown", "status":"Open", "timestamp":"2018-05-10T16:46:00.000+02:00", "prices":"Unknown", "type":"Car park", "numberOfDisabledParkingLots":"Unknown", "freeDisabledParkingLots":"Unknown", "numberOfElectroParkingLots":"Unknown", "freeOfElectroParkingLots":"Unknown", "numberOfFamilyParkingLots":"Unknown", "freeOfFamilyParkingLots":"Unknown", "numberOfWomenParkingLots":"Unknown", "freeOfWomenParkingLots":"Unknown", "numberOfPremiumParkingLots":"Unknown", "freeOfPremiumParkingLots":"Unknown", "premiumParkingLotPrices":"Unknown", "openingTimes":"Unknown", "address":{ "country":"Germany", "state":"Hessen", "city":"Frankfurt", "zipCode":"Unknown", "street":"Unknown", "houseNumber":"Unknown", "additionalInformation":"Unknown" }, "operator":"Unknown", "telephone":"Unknown", "website": "Unknown"},{"id":"15", "name":"Hauptwache", "latitude":"Unknown", "longitude":"Unknown", "totalParkingLots":"426", "freeParkingLots":"35", "height":"Unknown", "trend":"Unknown", "status":"Open", "timestamp":"2018-05-10T16:46:00.000+02:00", "prices":"Unknown", "type":"Car park", "numberOfDisabledParkingLots":"Unknown", "freeDisabledParkingLots":"Unknown", "numberOfElectroParkingLots":"Unknown", "freeOfElectroParkingLots":"Unknown", "numberOfFamilyParkingLots":"Unknown", "freeOfFamilyParkingLots":"Unknown", "numberOfWomenParkingLots":"Unknown", "freeOfWomenParkingLots":"Unknown", "numberOfPremiumParkingLots":"Unknown", "freeOfPremiumParkingLots":"Unknown", "premiumParkingLotPrices":"Unknown", "openingTimes":"Unknown", "address":{ "country":"Germany", "state":"Hessen", "city":"Frankfurt", "zipCode":"Unknown", "street":"Unknown", "houseNumber":"Unknown", "additionalInformation":"Unknown" }, "operator":"Unknown", "telephone":"Unknown", "website": "Unknown"},{"id":"16", "name":"Konstabler", "latitude":"Unknown", "longitude":"Unknown", "totalParkingLots":"809", "freeParkingLots":"238", "height":"Unknown", "trend":"Unknown", "status":"Open", "timestamp":"2018-05-10T16:46:00.000+02:00", "prices":"Unknown", "type":"Car park", "numberOfDisabledParkingLots":"Unknown", "freeDisabledParkingLots":"Unknown", "numberOfElectroParkingLots":"Unknown", "freeOfElectroParkingLots":"Unknown", "numberOfFamilyParkingLots":"Unknown", "freeOfFamilyParkingLots":"Unknown", "numberOfWomenParkingLots":"Unknown", "freeOfWomenParkingLots":"Unknown", "numberOfPremiumParkingLots":"Unknown", "freeOfPremiumParkingLots":"Unknown", "premiumParkingLotPrices":"Unknown", "openingTimes":"Unknown", "address":{ "country":"Germany", "state":"Hessen", "city":"Frankfurt", "zipCode":"Unknown", "street":"Unknown", "houseNumber":"Unknown", "additionalInformation":"Unknown" }, "operator":"Unknown", "telephone":"Unknown", "website": "Unknown"},{"id":"17", "name":"Turmcenter", "latitude":"Unknown", "longitude":"Unknown", "totalParkingLots":"350", "freeParkingLots":"91", "height":"Unknown", "trend":"Unknown", "status":"Open", "timestamp":"2018-05-10T16:46:00.000+02:00", "prices":"Unknown", "type":"Car park", "numberOfDisabledParkingLots":"Unknown", "freeDisabledParkingLots":"Unknown", "numberOfElectroParkingLots":"Unknown", "freeOfElectroParkingLots":"Unknown", "numberOfFamilyParkingLots":"Unknown", "freeOfFamilyParkingLots":"Unknown", "numberOfWomenParkingLots":"Unknown", "freeOfWomenParkingLots":"Unknown", "numberOfPremiumParkingLots":"Unknown", "freeOfPremiumParkingLots":"Unknown", "premiumParkingLotPrices":"Unknown", "openingTimes":"Unknown", "address":{ "country":"Germany", "state":"Hessen", "city":"Frankfurt", "zipCode":"Unknown", "street":"Unknown", "houseNumber":"Unknown", "additionalInformation":"Unknown" }, "operator":"Unknown", "telephone":"Unknown", "website": "Unknown"},{"id":"18", "name":"Junghofstraﬂe", "latitude":"Unknown", "longitude":"Unknown", "totalParkingLots":"315", "freeParkingLots":"5", "height":"Unknown", "trend":"Unknown", "status":"Open", "timestamp":"2018-05-10T16:46:00.000+02:00", "prices":"Unknown", "type":"Car park", "numberOfDisabledParkingLots":"Unknown", "freeDisabledParkingLots":"Unknown", "numberOfElectroParkingLots":"Unknown", "freeOfElectroParkingLots":"Unknown", "numberOfFamilyParkingLots":"Unknown", "freeOfFamilyParkingLots":"Unknown", "numberOfWomenParkingLots":"Unknown", "freeOfWomenParkingLots":"Unknown", "numberOfPremiumParkingLots":"Unknown", "freeOfPremiumParkingLots":"Unknown", "premiumParkingLotPrices":"Unknown", "openingTimes":"Unknown", "address":{ "country":"Germany", "state":"Hessen", "city":"Frankfurt", "zipCode":"Unknown", "street":"Unknown", "houseNumber":"Unknown", "additionalInformation":"Unknown" }, "operator":"Unknown", "telephone":"Unknown", "website": "Unknown"},{"id":"19", "name":"Schiller-Passage", "latitude":"Unknown", "longitude":"Unknown", "totalParkingLots":"514", "freeParkingLots":"238", "height":"Unknown", "trend":"Unknown", "status":"Open", "timestamp":"2018-05-10T16:46:00.000+02:00", "prices":"Unknown", "type":"Car park", "numberOfDisabledParkingLots":"Unknown", "freeDisabledParkingLots":"Unknown", "numberOfElectroParkingLots":"Unknown", "freeOfElectroParkingLots":"Unknown", "numberOfFamilyParkingLots":"Unknown", "freeOfFamilyParkingLots":"Unknown", "numberOfWomenParkingLots":"Unknown", "freeOfWomenParkingLots":"Unknown", "numberOfPremiumParkingLots":"Unknown", "freeOfPremiumParkingLots":"Unknown", "premiumParkingLotPrices":"Unknown", "openingTimes":"Unknown", "address":{ "country":"Germany", "state":"Hessen", "city":"Frankfurt", "zipCode":"Unknown", "street":"Unknown", "houseNumber":"Unknown", "additionalInformation":"Unknown" }, "operator":"Unknown", "telephone":"Unknown", "website": "Unknown"},{"id":"20", "name":"Bˆrse", "latitude":"Unknown", "longitude":"Unknown", "totalParkingLots":"893", "freeParkingLots":"492", "height":"Unknown", "trend":"Unknown", "status":"Open", "timestamp":"2018-05-10T16:46:00.000+02:00", "prices":"Unknown", "type":"Car park", "numberOfDisabledParkingLots":"Unknown", "freeDisabledParkingLots":"Unknown", "numberOfElectroParkingLots":"Unknown", "freeOfElectroParkingLots":"Unknown", "numberOfFamilyParkingLots":"Unknown", "freeOfFamilyParkingLots":"Unknown", "numberOfWomenParkingLots":"Unknown", "freeOfWomenParkingLots":"Unknown", "numberOfPremiumParkingLots":"Unknown", "freeOfPremiumParkingLots":"Unknown", "premiumParkingLotPrices":"Unknown", "openingTimes":"Unknown", "address":{ "country":"Germany", "state":"Hessen", "city":"Frankfurt", "zipCode":"Unknown", "street":"Unknown", "houseNumber":"Unknown", "additionalInformation":"Unknown" }, "operator":"Unknown", "telephone":"Unknown", "website": "Unknown"},{"id":"21", "name":"Alte Oper", "latitude":"Unknown", "longitude":"Unknown", "totalParkingLots":"407", "freeParkingLots":"242", "height":"Unknown", "trend":"Unknown", "status":"Open", "timestamp":"2018-05-10T16:46:00.000+02:00", "prices":"Unknown", "type":"Car park", "numberOfDisabledParkingLots":"Unknown", "freeDisabledParkingLots":"Unknown", "numberOfElectroParkingLots":"Unknown", "freeOfElectroParkingLots":"Unknown", "numberOfFamilyParkingLots":"Unknown", "freeOfFamilyParkingLots":"Unknown", "numberOfWomenParkingLots":"Unknown", "freeOfWomenParkingLots":"Unknown", "numberOfPremiumParkingLots":"Unknown", "freeOfPremiumParkingLots":"Unknown", "premiumParkingLotPrices":"Unknown", "openingTimes":"Unknown", "address":{ "country":"Germany", "state":"Hessen", "city":"Frankfurt", "zipCode":"Unknown", "street":"Unknown", "houseNumber":"Unknown", "additionalInformation":"Unknown" }, "operator":"Unknown", "telephone":"Unknown", "website": "Unknown"},{"id":"22", "name":"Goetheplatz", "latitude":"Unknown", "longitude":"Unknown", "totalParkingLots":"795", "freeParkingLots":"398", "height":"Unknown", "trend":"Unknown", "status":"Open", "timestamp":"2018-05-10T16:46:00.000+02:00", "prices":"Unknown", "type":"Car park", "numberOfDisabledParkingLots":"Unknown", "freeDisabledParkingLots":"Unknown", "numberOfElectroParkingLots":"Unknown", "freeOfElectroParkingLots":"Unknown", "numberOfFamilyParkingLots":"Unknown", "freeOfFamilyParkingLots":"Unknown", "numberOfWomenParkingLots":"Unknown", "freeOfWomenParkingLots":"Unknown", "numberOfPremiumParkingLots":"Unknown", "freeOfPremiumParkingLots":"Unknown", "premiumParkingLotPrices":"Unknown", "openingTimes":"Unknown", "address":{ "country":"Germany", "state":"Hessen", "city":"Frankfurt", "zipCode":"Unknown", "street":"Unknown", "houseNumber":"Unknown", "additionalInformation":"Unknown" }, "operator":"Unknown", "telephone":"Unknown", "website": "Unknown"},{"id":"23", "name":"Westend", "latitude":"Unknown", "longitude":"Unknown", "totalParkingLots":"624", "freeParkingLots":"385", "height":"Unknown", "trend":"Unknown", "status":"Open", "timestamp":"2018-05-10T16:46:00.000+02:00", "prices":"Unknown", "type":"Car park", "numberOfDisabledParkingLots":"Unknown", "freeDisabledParkingLots":"Unknown", "numberOfElectroParkingLots":"Unknown", "freeOfElectroParkingLots":"Unknown", "numberOfFamilyParkingLots":"Unknown", "freeOfFamilyParkingLots":"Unknown", "numberOfWomenParkingLots":"Unknown", "freeOfWomenParkingLots":"Unknown", "numberOfPremiumParkingLots":"Unknown", "freeOfPremiumParkingLots":"Unknown", "premiumParkingLotPrices":"Unknown", "openingTimes":"Unknown", "address":{ "country":"Germany", "state":"Hessen", "city":"Frankfurt", "zipCode":"Unknown", "street":"Unknown", "houseNumber":"Unknown", "additionalInformation":"Unknown" }, "operator":"Unknown", "telephone":"Unknown", "website": "Unknown"},{"id":"24", "name":"Opernturm", "latitude":"Unknown", "longitude":"Unknown", "totalParkingLots":"210", "freeParkingLots":"158", "height":"Unknown", "trend":"Unknown", "status":"Open", "timestamp":"2018-05-10T16:46:00.000+02:00", "prices":"Unknown", "type":"Car park", "numberOfDisabledParkingLots":"Unknown", "freeDisabledParkingLots":"Unknown", "numberOfElectroParkingLots":"Unknown", "freeOfElectroParkingLots":"Unknown", "numberOfFamilyParkingLots":"Unknown", "freeOfFamilyParkingLots":"Unknown", "numberOfWomenParkingLots":"Unknown", "freeOfWomenParkingLots":"Unknown", "numberOfPremiumParkingLots":"Unknown", "freeOfPremiumParkingLots":"Unknown", "premiumParkingLotPrices":"Unknown", "openingTimes":"Unknown", "address":{ "country":"Germany", "state":"Hessen", "city":"Frankfurt", "zipCode":"Unknown", "street":"Unknown", "houseNumber":"Unknown", "additionalInformation":"Unknown" }, "operator":"Unknown", "telephone":"Unknown", "website": "Unknown"},{"id":"25", "name":"Trianon", "latitude":"Unknown", "longitude":"Unknown", "totalParkingLots":"0", "freeParkingLots":"Unknown", "height":"Unknown", "trend":"Unknown", "status":"Closed", "timestamp":"2018-05-10T16:46:00.000+02:00", "prices":"Unknown", "type":"Car park", "numberOfDisabledParkingLots":"Unknown", "freeDisabledParkingLots":"Unknown", "numberOfElectroParkingLots":"Unknown", "freeOfElectroParkingLots":"Unknown", "numberOfFamilyParkingLots":"Unknown", "freeOfFamilyParkingLots":"Unknown", "numberOfWomenParkingLots":"Unknown", "freeOfWomenParkingLots":"Unknown", "numberOfPremiumParkingLots":"Unknown", "freeOfPremiumParkingLots":"Unknown", "premiumParkingLotPrices":"Unknown", "openingTimes":"Unknown", "address":{ "country":"Germany", "state":"Hessen", "city":"Frankfurt", "zipCode":"Unknown", "street":"Unknown", "houseNumber":"Unknown", "additionalInformation":"Unknown" }, "operator":"Unknown", "telephone":"Unknown", "website": "Unknown"},{"id":"26", "name":"Moselstraﬂe", "latitude":"Unknown", "longitude":"Unknown", "totalParkingLots":"0", "freeParkingLots":"Unknown", "height":"Unknown", "trend":"Unknown", "status":"Closed", "timestamp":"2018-05-10T16:46:00.000+02:00", "prices":"Unknown", "type":"Car park", "numberOfDisabledParkingLots":"Unknown", "freeDisabledParkingLots":"Unknown", "numberOfElectroParkingLots":"Unknown", "freeOfElectroParkingLots":"Unknown", "numberOfFamilyParkingLots":"Unknown", "freeOfFamilyParkingLots":"Unknown", "numberOfWomenParkingLots":"Unknown", "freeOfWomenParkingLots":"Unknown", "numberOfPremiumParkingLots":"Unknown", "freeOfPremiumParkingLots":"Unknown", "premiumParkingLotPrices":"Unknown", "openingTimes":"Unknown", "address":{ "country":"Germany", "state":"Hessen", "city":"Frankfurt", "zipCode":"Unknown", "street":"Unknown", "houseNumber":"Unknown", "additionalInformation":"Unknown" }, "operator":"Unknown", "telephone":"Unknown", "website": "Unknown"},{"id":"27", "name":"Baseler Platz", "latitude":"Unknown", "longitude":"Unknown", "totalParkingLots":"384", "freeParkingLots":"273", "height":"Unknown", "trend":"Unknown", "status":"Open", "timestamp":"2018-05-10T16:46:00.000+02:00", "prices":"Unknown", "type":"Car park", "numberOfDisabledParkingLots":"Unknown", "freeDisabledParkingLots":"Unknown", "numberOfElectroParkingLots":"Unknown", "freeOfElectroParkingLots":"Unknown", "numberOfFamilyParkingLots":"Unknown", "freeOfFamilyParkingLots":"Unknown", "numberOfWomenParkingLots":"Unknown", "freeOfWomenParkingLots":"Unknown", "numberOfPremiumParkingLots":"Unknown", "freeOfPremiumParkingLots":"Unknown", "premiumParkingLotPrices":"Unknown", "openingTimes":"Unknown", "address":{ "country":"Germany", "state":"Hessen", "city":"Frankfurt", "zipCode":"Unknown", "street":"Unknown", "houseNumber":"Unknown", "additionalInformation":"Unknown" }, "operator":"Unknown", "telephone":"Unknown", "website": "Unknown"},{"id":"28", "name":"Hauptbahnhof S¸d", "latitude":"Unknown", "longitude":"Unknown", "totalParkingLots":"364", "freeParkingLots":"286", "height":"Unknown", "trend":"Unknown", "status":"Open", "timestamp":"2018-05-10T16:46:00.000+02:00", "prices":"Unknown", "type":"Car park", "numberOfDisabledParkingLots":"Unknown", "freeDisabledParkingLots":"Unknown", "numberOfElectroParkingLots":"Unknown", "freeOfElectroParkingLots":"Unknown", "numberOfFamilyParkingLots":"Unknown", "freeOfFamilyParkingLots":"Unknown", "numberOfWomenParkingLots":"Unknown", "freeOfWomenParkingLots":"Unknown", "numberOfPremiumParkingLots":"Unknown", "freeOfPremiumParkingLots":"Unknown", "premiumParkingLotPrices":"Unknown", "openingTimes":"Unknown", "address":{ "country":"Germany", "state":"Hessen", "city":"Frankfurt", "zipCode":"Unknown", "street":"Unknown", "houseNumber":"Unknown", "additionalInformation":"Unknown" }, "operator":"Unknown", "telephone":"Unknown", "website": "Unknown"},{"id":"29", "name":"Am Theater", "latitude":"Unknown", "longitude":"Unknown", "totalParkingLots":"371", "freeParkingLots":"261", "height":"Unknown", "trend":"Unknown", "status":"Open", "timestamp":"2018-05-10T16:46:00.000+02:00", "prices":"Unknown", "type":"Car park", "numberOfDisabledParkingLots":"Unknown", "freeDisabledParkingLots":"Unknown", "numberOfElectroParkingLots":"Unknown", "freeOfElectroParkingLots":"Unknown", "numberOfFamilyParkingLots":"Unknown", "freeOfFamilyParkingLots":"Unknown", "numberOfWomenParkingLots":"Unknown", "freeOfWomenParkingLots":"Unknown", "numberOfPremiumParkingLots":"Unknown", "freeOfPremiumParkingLots":"Unknown", "premiumParkingLotPrices":"Unknown", "openingTimes":"Unknown", "address":{ "country":"Germany", "state":"Hessen", "city":"Frankfurt", "zipCode":"Unknown", "street":"Unknown", "houseNumber":"Unknown", "additionalInformation":"Unknown" }, "operator":"Unknown", "telephone":"Unknown", "website": "Unknown"},{"id":"6", "name":"Zeil", "latitude":"Unknown", "longitude":"Unknown", "totalParkingLots":"1415", "freeParkingLots":"Unknown", "height":"Unknown", "trend":"Unknown", "status":"Unknown", "timestamp":"2018-05-10T16:46:00.000+02:00", "prices":"Unknown", "type":"Car park area", "numberOfDisabledParkingLots":"Unknown", "freeDisabledParkingLots":"Unknown", "numberOfElectroParkingLots":"Unknown", "freeOfElectroParkingLots":"Unknown", "numberOfFamilyParkingLots":"Unknown", "freeOfFamilyParkingLots":"Unknown", "numberOfWomenParkingLots":"Unknown", "freeOfWomenParkingLots":"Unknown", "numberOfPremiumParkingLots":"Unknown", "freeOfPremiumParkingLots":"Unknown", "premiumParkingLotPrices":"Unknown", "openingTimes":"Unknown", "address":{ "country":"Germany", "state":"Hessen", "city":"Frankfurt", "zipCode":"Unknown", "street":"Unknown", "houseNumber":"Unknown", "additionalInformation":"Unknown" }, "operator":"Unknown", "telephone":"Unknown", "website": "Unknown"},{"id":"7", "name":"Dom / Rˆmer", "latitude":"Unknown", "longitude":"Unknown", "totalParkingLots":"273", "freeParkingLots":"Unknown", "height":"Unknown", "trend":"Unknown", "status":"Unknown", "timestamp":"2018-05-10T16:46:00.000+02:00", "prices":"Unknown", "type":"Car park area", "numberOfDisabledParkingLots":"Unknown", "freeDisabledParkingLots":"Unknown", "numberOfElectroParkingLots":"Unknown", "freeOfElectroParkingLots":"Unknown", "numberOfFamilyParkingLots":"Unknown", "freeOfFamilyParkingLots":"Unknown", "numberOfWomenParkingLots":"Unknown", "freeOfWomenParkingLots":"Unknown", "numberOfPremiumParkingLots":"Unknown", "freeOfPremiumParkingLots":"Unknown", "premiumParkingLotPrices":"Unknown", "openingTimes":"Unknown", "address":{ "country":"Germany", "state":"Hessen", "city":"Frankfurt", "zipCode":"Unknown", "street":"Unknown", "houseNumber":"Unknown", "additionalInformation":"Unknown" }, "operator":"Unknown", "telephone":"Unknown", "website": "Unknown"},{"id":"8", "name":"Anlagenring", "latitude":"Unknown", "longitude":"Unknown", "totalParkingLots":"1466", "freeParkingLots":"Unknown", "height":"Unknown", "trend":"Unknown", "status":"Unknown", "timestamp":"2018-05-10T16:46:00.000+02:00", "prices":"Unknown", "type":"Car park area", "numberOfDisabledParkingLots":"Unknown", "freeDisabledParkingLots":"Unknown", "numberOfElectroParkingLots":"Unknown", "freeOfElectroParkingLots":"Unknown", "numberOfFamilyParkingLots":"Unknown", "freeOfFamilyParkingLots":"Unknown", "numberOfWomenParkingLots":"Unknown", "freeOfWomenParkingLots":"Unknown", "numberOfPremiumParkingLots":"Unknown", "freeOfPremiumParkingLots":"Unknown", "premiumParkingLotPrices":"Unknown", "openingTimes":"Unknown", "address":{ "country":"Germany", "state":"Hessen", "city":"Frankfurt", "zipCode":"Unknown", "street":"Unknown", "houseNumber":"Unknown", "additionalInformation":"Unknown" }, "operator":"Unknown", "telephone":"Unknown", "website": "Unknown"},{"id":"9", "name":"Mainzer Landstraﬂe", "latitude":"Unknown", "longitude":"Unknown", "totalParkingLots":"543", "freeParkingLots":"Unknown", "height":"Unknown", "trend":"Unknown", "status":"Unknown", "timestamp":"2018-05-10T16:46:00.000+02:00", "prices":"Unknown", "type":"Car park area", "numberOfDisabledParkingLots":"Unknown", "freeDisabledParkingLots":"Unknown", "numberOfElectroParkingLots":"Unknown", "freeOfElectroParkingLots":"Unknown", "numberOfFamilyParkingLots":"Unknown", "freeOfFamilyParkingLots":"Unknown", "numberOfWomenParkingLots":"Unknown", "freeOfWomenParkingLots":"Unknown", "numberOfPremiumParkingLots":"Unknown", "freeOfPremiumParkingLots":"Unknown", "premiumParkingLotPrices":"Unknown", "openingTimes":"Unknown", "address":{ "country":"Germany", "state":"Hessen", "city":"Frankfurt", "zipCode":"Unknown", "street":"Unknown", "houseNumber":"Unknown", "additionalInformation":"Unknown" }, "operator":"Unknown", "telephone":"Unknown", "website": "Unknown"},{"id":"10", "name":"Bahnhofsviertel", "latitude":"Unknown", "longitude":"Unknown", "totalParkingLots":"820", "freeParkingLots":"Unknown", "height":"Unknown", "trend":"Unknown", "status":"Unknown", "timestamp":"2018-05-10T16:46:00.000+02:00", "prices":"Unknown", "type":"Car park area", "numberOfDisabledParkingLots":"Unknown", "freeDisabledParkingLots":"Unknown", "numberOfElectroParkingLots":"Unknown", "freeOfElectroParkingLots":"Unknown", "numberOfFamilyParkingLots":"Unknown", "freeOfFamilyParkingLots":"Unknown", "numberOfWomenParkingLots":"Unknown", "freeOfWomenParkingLots":"Unknown", "numberOfPremiumParkingLots":"Unknown", "freeOfPremiumParkingLots":"Unknown", "premiumParkingLotPrices":"Unknown", "openingTimes":"Unknown", "address":{ "country":"Germany", "state":"Hessen", "city":"Frankfurt", "zipCode":"Unknown", "street":"Unknown", "houseNumber":"Unknown", "additionalInformation":"Unknown" }, "operator":"Unknown", "telephone":"Unknown", "website": "Unknown"},{"id":"11", "name":"Karstadt", "latitude":"Unknown", "longitude":"Unknown", "totalParkingLots":"0", "freeParkingLots":"Unknown", "height":"Unknown", "trend":"Unknown", "status":"Closed", "timestamp":"2018-05-10T16:46:00.000+02:00", "prices":"Unknown", "type":"Car park", "numberOfDisabledParkingLots":"Unknown", "freeDisabledParkingLots":"Unknown", "numberOfElectroParkingLots":"Unknown", "freeOfElectroParkingLots":"Unknown", "numberOfFamilyParkingLots":"Unknown", "freeOfFamilyParkingLots":"Unknown", "numberOfWomenParkingLots":"Unknown", "freeOfWomenParkingLots":"Unknown", "numberOfPremiumParkingLots":"Unknown", "freeOfPremiumParkingLots":"Unknown", "premiumParkingLotPrices":"Unknown", "openingTimes":"Unknown", "address":{ "country":"Germany", "state":"Hessen", "city":"Frankfurt", "zipCode":"Unknown", "street":"Unknown", "houseNumber":"Unknown", "additionalInformation":"Unknown" }, "operator":"Unknown", "telephone":"Unknown", "website": "Unknown"},{"id":"12", "name":"Am Gericht", "latitude":"Unknown", "longitude":"Unknown", "totalParkingLots":"680", "freeParkingLots":"527", "height":"Unknown", "trend":"Unknown", "status":"Open", "timestamp":"2018-05-10T16:46:00.000+02:00", "prices":"Unknown", "type":"Car park", "numberOfDisabledParkingLots":"Unknown", "freeDisabledParkingLots":"Unknown", "numberOfElectroParkingLots":"Unknown", "freeOfElectroParkingLots":"Unknown", "numberOfFamilyParkingLots":"Unknown", "freeOfFamilyParkingLots":"Unknown", "numberOfWomenParkingLots":"Unknown", "freeOfWomenParkingLots":"Unknown", "numberOfPremiumParkingLots":"Unknown", "freeOfPremiumParkingLots":"Unknown", "premiumParkingLotPrices":"Unknown", "openingTimes":"Unknown", "address":{ "country":"Germany", "state":"Hessen", "city":"Frankfurt", "zipCode":"Unknown", "street":"Unknown", "houseNumber":"Unknown", "additionalInformation":"Unknown" }, "operator":"Unknown", "telephone":"Unknown", "website": "Unknown"},{"id":"13", "name":"MyZeil", "latitude":"Unknown", "longitude":"Unknown", "totalParkingLots":"905", "freeParkingLots":"610", "height":"Unknown", "trend":"Unknown", "status":"Open", "timestamp":"2018-05-10T16:46:00.000+02:00", "prices":"Unknown", "type":"Car park", "numberOfDisabledParkingLots":"Unknown", "freeDisabledParkingLots":"Unknown", "numberOfElectroParkingLots":"Unknown", "freeOfElectroParkingLots":"Unknown", "numberOfFamilyParkingLots":"Unknown", "freeOfFamilyParkingLots":"Unknown", "numberOfWomenParkingLots":"Unknown", "freeOfWomenParkingLots":"Unknown", "numberOfPremiumParkingLots":"Unknown", "freeOfPremiumParkingLots":"Unknown", "premiumParkingLotPrices":"Unknown", "openingTimes":"Unknown", "address":{ "country":"Germany", "state":"Hessen", "city":"Frankfurt", "zipCode":"Unknown", "street":"Unknown", "houseNumber":"Unknown", "additionalInformation":"Unknown" }, "operator":"Unknown", "telephone":"Unknown", "website": "Unknown"},{"id":"14", "name":"Konrad-Adenauer-Straﬂe", "latitude":"Unknown", "longitude":"Unknown", "totalParkingLots":"609", "freeParkingLots":"278", "height":"Unknown", "trend":"Unknown", "status":"Open", "timestamp":"2018-05-10T16:46:00.000+02:00", "prices":"Unknown", "type":"Car park", "numberOfDisabledParkingLots":"Unknown", "freeDisabledParkingLots":"Unknown", "numberOfElectroParkingLots":"Unknown", "freeOfElectroParkingLots":"Unknown", "numberOfFamilyParkingLots":"Unknown", "freeOfFamilyParkingLots":"Unknown", "numberOfWomenParkingLots":"Unknown", "freeOfWomenParkingLots":"Unknown", "numberOfPremiumParkingLots":"Unknown", "freeOfPremiumParkingLots":"Unknown", "premiumParkingLotPrices":"Unknown", "openingTimes":"Unknown", "address":{ "country":"Germany", "state":"Hessen", "city":"Frankfurt", "zipCode":"Unknown", "street":"Unknown", "houseNumber":"Unknown", "additionalInformation":"Unknown" }, "operator":"Unknown", "telephone":"Unknown", "website": "Unknown"},{"id":"15", "name":"Hauptwache", "latitude":"Unknown", "longitude":"Unknown", "totalParkingLots":"426", "freeParkingLots":"35", "height":"Unknown", "trend":"Unknown", "status":"Open", "timestamp":"2018-05-10T16:46:00.000+02:00", "prices":"Unknown", "type":"Car park", "numberOfDisabledParkingLots":"Unknown", "freeDisabledParkingLots":"Unknown", "numberOfElectroParkingLots":"Unknown", "freeOfElectroParkingLots":"Unknown", "numberOfFamilyParkingLots":"Unknown", "freeOfFamilyParkingLots":"Unknown", "numberOfWomenParkingLots":"Unknown", "freeOfWomenParkingLots":"Unknown", "numberOfPremiumParkingLots":"Unknown", "freeOfPremiumParkingLots":"Unknown", "premiumParkingLotPrices":"Unknown", "openingTimes":"Unknown", "address":{ "country":"Germany", "state":"Hessen", "city":"Frankfurt", "zipCode":"Unknown", "street":"Unknown", "houseNumber":"Unknown", "additionalInformation":"Unknown" }, "operator":"Unknown", "telephone":"Unknown", "website": "Unknown"},{"id":"16", "name":"Konstabler", "latitude":"Unknown", "longitude":"Unknown", "totalParkingLots":"809", "freeParkingLots":"238", "height":"Unknown", "trend":"Unknown", "status":"Open", "timestamp":"2018-05-10T16:46:00.000+02:00", "prices":"Unknown", "type":"Car park", "numberOfDisabledParkingLots":"Unknown", "freeDisabledParkingLots":"Unknown", "numberOfElectroParkingLots":"Unknown", "freeOfElectroParkingLots":"Unknown", "numberOfFamilyParkingLots":"Unknown", "freeOfFamilyParkingLots":"Unknown", "numberOfWomenParkingLots":"Unknown", "freeOfWomenParkingLots":"Unknown", "numberOfPremiumParkingLots":"Unknown", "freeOfPremiumParkingLots":"Unknown", "premiumParkingLotPrices":"Unknown", "openingTimes":"Unknown", "address":{ "country":"Germany", "state":"Hessen", "city":"Frankfurt", "zipCode":"Unknown", "street":"Unknown", "houseNumber":"Unknown", "additionalInformation":"Unknown" }, "operator":"Unknown", "telephone":"Unknown", "website": "Unknown"},{"id":"17", "name":"Turmcenter", "latitude":"Unknown", "longitude":"Unknown", "totalParkingLots":"350", "freeParkingLots":"91", "height":"Unknown", "trend":"Unknown", "status":"Open", "timestamp":"2018-05-10T16:46:00.000+02:00", "prices":"Unknown", "type":"Car park", "numberOfDisabledParkingLots":"Unknown", "freeDisabledParkingLots":"Unknown", "numberOfElectroParkingLots":"Unknown", "freeOfElectroParkingLots":"Unknown", "numberOfFamilyParkingLots":"Unknown", "freeOfFamilyParkingLots":"Unknown", "numberOfWomenParkingLots":"Unknown", "freeOfWomenParkingLots":"Unknown", "numberOfPremiumParkingLots":"Unknown", "freeOfPremiumParkingLots":"Unknown", "premiumParkingLotPrices":"Unknown", "openingTimes":"Unknown", "address":{ "country":"Germany", "state":"Hessen", "city":"Frankfurt", "zipCode":"Unknown", "street":"Unknown", "houseNumber":"Unknown", "additionalInformation":"Unknown" }, "operator":"Unknown", "telephone":"Unknown", "website": "Unknown"},{"id":"18", "name":"Junghofstraﬂe", "latitude":"Unknown", "longitude":"Unknown", "totalParkingLots":"315", "freeParkingLots":"5", "height":"Unknown", "trend":"Unknown", "status":"Open", "timestamp":"2018-05-10T16:46:00.000+02:00", "prices":"Unknown", "type":"Car park", "numberOfDisabledParkingLots":"Unknown", "freeDisabledParkingLots":"Unknown", "numberOfElectroParkingLots":"Unknown", "freeOfElectroParkingLots":"Unknown", "numberOfFamilyParkingLots":"Unknown", "freeOfFamilyParkingLots":"Unknown", "numberOfWomenParkingLots":"Unknown", "freeOfWomenParkingLots":"Unknown", "numberOfPremiumParkingLots":"Unknown", "freeOfPremiumParkingLots":"Unknown", "premiumParkingLotPrices":"Unknown", "openingTimes":"Unknown", "address":{ "country":"Germany", "state":"Hessen", "city":"Frankfurt", "zipCode":"Unknown", "street":"Unknown", "houseNumber":"Unknown", "additionalInformation":"Unknown" }, "operator":"Unknown", "telephone":"Unknown", "website": "Unknown"},{"id":"19", "name":"Schiller-Passage", "latitude":"Unknown", "longitude":"Unknown", "totalParkingLots":"514", "freeParkingLots":"238", "height":"Unknown", "trend":"Unknown", "status":"Open", "timestamp":"2018-05-10T16:46:00.000+02:00", "prices":"Unknown", "type":"Car park", "numberOfDisabledParkingLots":"Unknown", "freeDisabledParkingLots":"Unknown", "numberOfElectroParkingLots":"Unknown", "freeOfElectroParkingLots":"Unknown", "numberOfFamilyParkingLots":"Unknown", "freeOfFamilyParkingLots":"Unknown", "numberOfWomenParkingLots":"Unknown", "freeOfWomenParkingLots":"Unknown", "numberOfPremiumParkingLots":"Unknown", "freeOfPremiumParkingLots":"Unknown", "premiumParkingLotPrices":"Unknown", "openingTimes":"Unknown", "address":{ "country":"Germany", "state":"Hessen", "city":"Frankfurt", "zipCode":"Unknown", "street":"Unknown", "houseNumber":"Unknown", "additionalInformation":"Unknown" }, "operator":"Unknown", "telephone":"Unknown", "website": "Unknown"},{"id":"20", "name":"Bˆrse", "latitude":"Unknown", "longitude":"Unknown", "totalParkingLots":"893", "freeParkingLots":"492", "height":"Unknown", "trend":"Unknown", "status":"Open", "timestamp":"2018-05-10T16:46:00.000+02:00", "prices":"Unknown", "type":"Car park", "numberOfDisabledParkingLots":"Unknown", "freeDisabledParkingLots":"Unknown", "numberOfElectroParkingLots":"Unknown", "freeOfElectroParkingLots":"Unknown", "numberOfFamilyParkingLots":"Unknown", "freeOfFamilyParkingLots":"Unknown", "numberOfWomenParkingLots":"Unknown", "freeOfWomenParkingLots":"Unknown", "numberOfPremiumParkingLots":"Unknown", "freeOfPremiumParkingLots":"Unknown", "premiumParkingLotPrices":"Unknown", "openingTimes":"Unknown", "address":{ "country":"Germany", "state":"Hessen", "city":"Frankfurt", "zipCode":"Unknown", "street":"Unknown", "houseNumber":"Unknown", "additionalInformation":"Unknown" }, "operator":"Unknown", "telephone":"Unknown", "website": "Unknown"},{"id":"21", "name":"Alte Oper", "latitude":"Unknown", "longitude":"Unknown", "totalParkingLots":"407", "freeParkingLots":"242", "height":"Unknown", "trend":"Unknown", "status":"Open", "timestamp":"2018-05-10T16:46:00.000+02:00", "prices":"Unknown", "type":"Car park", "numberOfDisabledParkingLots":"Unknown", "freeDisabledParkingLots":"Unknown", "numberOfElectroParkingLots":"Unknown", "freeOfElectroParkingLots":"Unknown", "numberOfFamilyParkingLots":"Unknown", "freeOfFamilyParkingLots":"Unknown", "numberOfWomenParkingLots":"Unknown", "freeOfWomenParkingLots":"Unknown", "numberOfPremiumParkingLots":"Unknown", "freeOfPremiumParkingLots":"Unknown", "premiumParkingLotPrices":"Unknown", "openingTimes":"Unknown", "address":{ "country":"Germany", "state":"Hessen", "city":"Frankfurt", "zipCode":"Unknown", "street":"Unknown", "houseNumber":"Unknown", "additionalInformation":"Unknown" }, "operator":"Unknown", "telephone":"Unknown", "website": "Unknown"},{"id":"22", "name":"Goetheplatz", "latitude":"Unknown", "longitude":"Unknown", "totalParkingLots":"795", "freeParkingLots":"398", "height":"Unknown", "trend":"Unknown", "status":"Open", "timestamp":"2018-05-10T16:46:00.000+02:00", "prices":"Unknown", "type":"Car park", "numberOfDisabledParkingLots":"Unknown", "freeDisabledParkingLots":"Unknown", "numberOfElectroParkingLots":"Unknown", "freeOfElectroParkingLots":"Unknown", "numberOfFamilyParkingLots":"Unknown", "freeOfFamilyParkingLots":"Unknown", "numberOfWomenParkingLots":"Unknown", "freeOfWomenParkingLots":"Unknown", "numberOfPremiumParkingLots":"Unknown", "freeOfPremiumParkingLots":"Unknown", "premiumParkingLotPrices":"Unknown", "openingTimes":"Unknown", "address":{ "country":"Germany", "state":"Hessen", "city":"Frankfurt", "zipCode":"Unknown", "street":"Unknown", "houseNumber":"Unknown", "additionalInformation":"Unknown" }, "operator":"Unknown", "telephone":"Unknown", "website": "Unknown"},{"id":"23", "name":"Westend", "latitude":"Unknown", "longitude":"Unknown", "totalParkingLots":"624", "freeParkingLots":"385", "height":"Unknown", "trend":"Unknown", "status":"Open", "timestamp":"2018-05-10T16:46:00.000+02:00", "prices":"Unknown", "type":"Car park", "numberOfDisabledParkingLots":"Unknown", "freeDisabledParkingLots":"Unknown", "numberOfElectroParkingLots":"Unknown", "freeOfElectroParkingLots":"Unknown", "numberOfFamilyParkingLots":"Unknown", "freeOfFamilyParkingLots":"Unknown", "numberOfWomenParkingLots":"Unknown", "freeOfWomenParkingLots":"Unknown", "numberOfPremiumParkingLots":"Unknown", "freeOfPremiumParkingLots":"Unknown", "premiumParkingLotPrices":"Unknown", "openingTimes":"Unknown", "address":{ "country":"Germany", "state":"Hessen", "city":"Frankfurt", "zipCode":"Unknown", "street":"Unknown", "houseNumber":"Unknown", "additionalInformation":"Unknown" }, "operator":"Unknown", "telephone":"Unknown", "website": "Unknown"},{"id":"24", "name":"Opernturm", "latitude":"Unknown", "longitude":"Unknown", "totalParkingLots":"210", "freeParkingLots":"158", "height":"Unknown", "trend":"Unknown", "status":"Open", "timestamp":"2018-05-10T16:46:00.000+02:00", "prices":"Unknown", "type":"Car park", "numberOfDisabledParkingLots":"Unknown", "freeDisabledParkingLots":"Unknown", "numberOfElectroParkingLots":"Unknown", "freeOfElectroParkingLots":"Unknown", "numberOfFamilyParkingLots":"Unknown", "freeOfFamilyParkingLots":"Unknown", "numberOfWomenParkingLots":"Unknown", "freeOfWomenParkingLots":"Unknown", "numberOfPremiumParkingLots":"Unknown", "freeOfPremiumParkingLots":"Unknown", "premiumParkingLotPrices":"Unknown", "openingTimes":"Unknown", "address":{ "country":"Germany", "state":"Hessen", "city":"Frankfurt", "zipCode":"Unknown", "street":"Unknown", "houseNumber":"Unknown", "additionalInformation":"Unknown" }, "operator":"Unknown", "telephone":"Unknown", "website": "Unknown"},{"id":"25", "name":"Trianon", "latitude":"Unknown", "longitude":"Unknown", "totalParkingLots":"0", "freeParkingLots":"Unknown", "height":"Unknown", "trend":"Unknown", "status":"Closed", "timestamp":"2018-05-10T16:46:00.000+02:00", "prices":"Unknown", "type":"Car park", "numberOfDisabledParkingLots":"Unknown", "freeDisabledParkingLots":"Unknown", "numberOfElectroParkingLots":"Unknown", "freeOfElectroParkingLots":"Unknown", "numberOfFamilyParkingLots":"Unknown", "freeOfFamilyParkingLots":"Unknown", "numberOfWomenParkingLots":"Unknown", "freeOfWomenParkingLots":"Unknown", "numberOfPremiumParkingLots":"Unknown", "freeOfPremiumParkingLots":"Unknown", "premiumParkingLotPrices":"Unknown", "openingTimes":"Unknown", "address":{ "country":"Germany", "state":"Hessen", "city":"Frankfurt", "zipCode":"Unknown", "street":"Unknown", "houseNumber":"Unknown", "additionalInformation":"Unknown" }, "operator":"Unknown", "telephone":"Unknown", "website": "Unknown"},{"id":"26", "name":"Moselstraﬂe", "latitude":"Unknown", "longitude":"Unknown", "totalParkingLots":"0", "freeParkingLots":"Unknown", "height":"Unknown", "trend":"Unknown", "status":"Closed", "timestamp":"2018-05-10T16:46:00.000+02:00", "prices":"Unknown", "type":"Car park", "numberOfDisabledParkingLots":"Unknown", "freeDisabledParkingLots":"Unknown", "numberOfElectroParkingLots":"Unknown", "freeOfElectroParkingLots":"Unknown", "numberOfFamilyParkingLots":"Unknown", "freeOfFamilyParkingLots":"Unknown", "numberOfWomenParkingLots":"Unknown", "freeOfWomenParkingLots":"Unknown", "numberOfPremiumParkingLots":"Unknown", "freeOfPremiumParkingLots":"Unknown", "premiumParkingLotPrices":"Unknown", "openingTimes":"Unknown", "address":{ "country":"Germany", "state":"Hessen", "city":"Frankfurt", "zipCode":"Unknown", "street":"Unknown", "houseNumber":"Unknown", "additionalInformation":"Unknown" }, "operator":"Unknown", "telephone":"Unknown", "website": "Unknown"},{"id":"27", "name":"Baseler Platz", "latitude":"Unknown", "longitude":"Unknown", "totalParkingLots":"384", "freeParkingLots":"273", "height":"Unknown", "trend":"Unknown", "status":"Open", "timestamp":"2018-05-10T16:46:00.000+02:00", "prices":"Unknown", "type":"Car park", "numberOfDisabledParkingLots":"Unknown", "freeDisabledParkingLots":"Unknown", "numberOfElectroParkingLots":"Unknown", "freeOfElectroParkingLots":"Unknown", "numberOfFamilyParkingLots":"Unknown", "freeOfFamilyParkingLots":"Unknown", "numberOfWomenParkingLots":"Unknown", "freeOfWomenParkingLots":"Unknown", "numberOfPremiumParkingLots":"Unknown", "freeOfPremiumParkingLots":"Unknown", "premiumParkingLotPrices":"Unknown", "openingTimes":"Unknown", "address":{ "country":"Germany", "state":"Hessen", "city":"Frankfurt", "zipCode":"Unknown", "street":"Unknown", "houseNumber":"Unknown", "additionalInformation":"Unknown" }, "operator":"Unknown", "telephone":"Unknown", "website": "Unknown"},{"id":"28", "name":"Hauptbahnhof S¸d", "latitude":"Unknown", "longitude":"Unknown", "totalParkingLots":"364", "freeParkingLots":"286", "height":"Unknown", "trend":"Unknown", "status":"Open", "timestamp":"2018-05-10T16:46:00.000+02:00", "prices":"Unknown", "type":"Car park", "numberOfDisabledParkingLots":"Unknown", "freeDisabledParkingLots":"Unknown", "numberOfElectroParkingLots":"Unknown", "freeOfElectroParkingLots":"Unknown", "numberOfFamilyParkingLots":"Unknown", "freeOfFamilyParkingLots":"Unknown", "numberOfWomenParkingLots":"Unknown", "freeOfWomenParkingLots":"Unknown", "numberOfPremiumParkingLots":"Unknown", "freeOfPremiumParkingLots":"Unknown", "premiumParkingLotPrices":"Unknown", "openingTimes":"Unknown", "address":{ "country":"Germany", "state":"Hessen", "city":"Frankfurt", "zipCode":"Unknown", "street":"Unknown", "houseNumber":"Unknown", "additionalInformation":"Unknown" }, "operator":"Unknown", "telephone":"Unknown", "website": "Unknown"},{"id":"29", "name":"Am Theater", "latitude":"Unknown", "longitude":"Unknown", "totalParkingLots":"371", "freeParkingLots":"261", "height":"Unknown", "trend":"Unknown", "status":"Open", "timestamp":"2018-05-10T16:46:00.000+02:00", "prices":"Unknown", "type":"Car park", "numberOfDisabledParkingLots":"Unknown", "freeDisabledParkingLots":"Unknown", "numberOfElectroParkingLots":"Unknown", "freeOfElectroParkingLots":"Unknown", "numberOfFamilyParkingLots":"Unknown", "freeOfFamilyParkingLots":"Unknown", "numberOfWomenParkingLots":"Unknown", "freeOfWomenParkingLots":"Unknown", "numberOfPremiumParkingLots":"Unknown", "freeOfPremiumParkingLots":"Unknown", "premiumParkingLotPrices":"Unknown", "openingTimes":"Unknown", "address":{ "country":"Germany", "state":"Hessen", "city":"Frankfurt", "zipCode":"Unknown", "street":"Unknown", "houseNumber":"Unknown", "additionalInformation":"Unknown" }, "operator":"Unknown", "telephone":"Unknown", "website": "Unknown"},{"id":"30", "name":"Lanxess Arena 1", "latitude":"50.938961923069", "longitude":"6.9833329548588", "totalParkingLots":"1645", "freeParkingLots":"Unknown", "height":"Unknown", "trend":"Parking lots are staying constanly visited", "status":"Unknown", "timestamp":"2018-05-10 16:39:42", "prices":"Unknown", "type":"Unknown", "numberOfDisabledParkingLots":"Unknown", "freeDisabledParkingLots":"Unknown", "numberOfElectroParkingLots":"Unknown", "freeOfElectroParkingLots":"Unknown", "numberOfFamilyParkingLots":"Unknown", "freeOfFamilyParkingLots":"Unknown", "numberOfWomenParkingLots":"Unknown", "freeOfWomenParkingLots":"Unknown", "numberOfPremiumParkingLots":"Unknown", "freeOfPremiumParkingLots":"Unknown", "premiumParkingLotPrices":"Unknown", "openingTimes":"", "address":{ "country":"Germany", "state":"North Rhine-Westphalia", "city":"Cologne", "zipCode":"Unknown", "street":"Unknown", "houseNumber":"Unknown", "additionalInformation":"Unknown" }, "operator":"Unknown", "telephone":"Unknown", "website": "Unknown"},{"id":"31", "name":"Lanxess Arena 2", "latitude":"50.938736474695", "longitude":"6.9802124254481", "totalParkingLots":"159", "freeParkingLots":"Unknown", "height":"Unknown", "trend":"Parking lots are staying constanly visited", "status":"Unknown", "timestamp":"2018-05-10 16:38:41", "prices":"Unknown", "type":"Unknown", "numberOfDisabledParkingLots":"Unknown", "freeDisabledParkingLots":"Unknown", "numberOfElectroParkingLots":"Unknown", "freeOfElectroParkingLots":"Unknown", "numberOfFamilyParkingLots":"Unknown", "freeOfFamilyParkingLots":"Unknown", "numberOfWomenParkingLots":"Unknown", "freeOfWomenParkingLots":"Unknown", "numberOfPremiumParkingLots":"Unknown", "freeOfPremiumParkingLots":"Unknown", "premiumParkingLotPrices":"Unknown", "openingTimes":"", "address":{ "country":"Germany", "state":"North Rhine-Westphalia", "city":"Cologne", "zipCode":"Unknown", "street":"Unknown", "houseNumber":"Unknown", "additionalInformation":"Unknown" }, "operator":"Unknown", "telephone":"Unknown", "website": "Unknown"},{"id":"32", "name":"Lanxess Arena 4", "latitude":"50.938893001191", "longitude":"6.9851099147329", "totalParkingLots":"261", "freeParkingLots":"Unknown", "height":"Unknown", "trend":"Parking lots are staying constanly visited", "status":"Unknown", "timestamp":"2018-05-10 16:13:40", "prices":"Unknown", "type":"Unknown", "numberOfDisabledParkingLots":"Unknown", "freeDisabledParkingLots":"Unknown", "numberOfElectroParkingLots":"Unknown", "freeOfElectroParkingLots":"Unknown", "numberOfFamilyParkingLots":"Unknown", "freeOfFamilyParkingLots":"Unknown", "numberOfWomenParkingLots":"Unknown", "freeOfWomenParkingLots":"Unknown", "numberOfPremiumParkingLots":"Unknown", "freeOfPremiumParkingLots":"Unknown", "premiumParkingLotPrices":"Unknown", "openingTimes":"", "address":{ "country":"Germany", "state":"North Rhine-Westphalia", "city":"Cologne", "zipCode":"Unknown", "street":"Unknown", "houseNumber":"Unknown", "additionalInformation":"Unknown" }, "operator":"Unknown", "telephone":"Unknown", "website": "Unknown"},{"id":"33", "name":"Kˆln Arcaden", "latitude":"50.938166752726", "longitude":"6.9975859581216", "totalParkingLots":"1785", "freeParkingLots":"Unknown", "height":"Unknown", "trend":"Parking lots are staying constanly visited", "status":"Unknown", "timestamp":"2018-05-10 16:37:41", "prices":"Unknown", "type":"Unknown", "numberOfDisabledParkingLots":"Unknown", "freeDisabledParkingLots":"Unknown", "numberOfElectroParkingLots":"Unknown", "freeOfElectroParkingLots":"Unknown", "numberOfFamilyParkingLots":"Unknown", "freeOfFamilyParkingLots":"Unknown", "numberOfWomenParkingLots":"Unknown", "freeOfWomenParkingLots":"Unknown", "numberOfPremiumParkingLots":"Unknown", "freeOfPremiumParkingLots":"Unknown", "premiumParkingLotPrices":"Unknown", "openingTimes":"", "address":{ "country":"Germany", "state":"North Rhine-Westphalia", "city":"Cologne", "zipCode":"Unknown", "street":"Unknown", "houseNumber":"Unknown", "additionalInformation":"Unknown" }, "operator":"Unknown", "telephone":"Unknown", "website": "Unknown"},{"id":"34", "name":"Hauptbahnhof", "latitude":"50.943542803025", "longitude":"6.9600578042555", "totalParkingLots":"217", "freeParkingLots":"Unknown", "height":"Unknown", "trend":"Parking lots are staying constanly visited", "status":"Unknown", "timestamp":"2018-05-10 16:42:41", "prices":"Unknown", "type":"Unknown", "numberOfDisabledParkingLots":"Unknown", "freeDisabledParkingLots":"Unknown", "numberOfElectroParkingLots":"Unknown", "freeOfElectroParkingLots":"Unknown", "numberOfFamilyParkingLots":"Unknown", "freeOfFamilyParkingLots":"Unknown", "numberOfWomenParkingLots":"Unknown", "freeOfWomenParkingLots":"Unknown", "numberOfPremiumParkingLots":"Unknown", "freeOfPremiumParkingLots":"Unknown", "premiumParkingLotPrices":"Unknown", "openingTimes":"", "address":{ "country":"Germany", "state":"North Rhine-Westphalia", "city":"Cologne", "zipCode":"Unknown", "street":"Unknown", "houseNumber":"Unknown", "additionalInformation":"Unknown" }, "operator":"Unknown", "telephone":"Unknown", "website": "Unknown"},{"id":"35", "name":"Am Dom", "latitude":"50.940296947302", "longitude":"6.9596401529264", "totalParkingLots":"127", "freeParkingLots":"Unknown", "height":"Unknown", "trend":"More free parking lots are available", "status":"Unknown", "timestamp":"2018-05-10 16:42:41", "prices":"Unknown", "type":"Unknown", "numberOfDisabledParkingLots":"Unknown", "freeDisabledParkingLots":"Unknown", "numberOfElectroParkingLots":"Unknown", "freeOfElectroParkingLots":"Unknown", "numberOfFamilyParkingLots":"Unknown", "freeOfFamilyParkingLots":"Unknown", "numberOfWomenParkingLots":"Unknown", "freeOfWomenParkingLots":"Unknown", "numberOfPremiumParkingLots":"Unknown", "freeOfPremiumParkingLots":"Unknown", "premiumParkingLotPrices":"Unknown", "openingTimes":"", "address":{ "country":"Germany", "state":"North Rhine-Westphalia", "city":"Cologne", "zipCode":"Unknown", "street":"Unknown", "houseNumber":"Unknown", "additionalInformation":"Unknown" }, "operator":"Unknown", "telephone":"Unknown", "website": "Unknown"},{"id":"36", "name":"Groﬂ Sankt Martin", "latitude":"50.93987437702", "longitude":"6.9604378349552", "totalParkingLots":"110", "freeParkingLots":"Unknown", "height":"Unknown", "trend":"Parking lots are staying constanly visited", "status":"Unknown", "timestamp":"2018-05-10 16:42:41", "prices":"Unknown", "type":"Unknown", "numberOfDisabledParkingLots":"Unknown", "freeDisabledParkingLots":"Unknown", "numberOfElectroParkingLots":"Unknown", "freeOfElectroParkingLots":"Unknown", "numberOfFamilyParkingLots":"Unknown", "freeOfFamilyParkingLots":"Unknown", "numberOfWomenParkingLots":"Unknown", "freeOfWomenParkingLots":"Unknown", "numberOfPremiumParkingLots":"Unknown", "freeOfPremiumParkingLots":"Unknown", "premiumParkingLotPrices":"Unknown", "openingTimes":"", "address":{ "country":"Germany", "state":"North Rhine-Westphalia", "city":"Cologne", "zipCode":"Unknown", "street":"Unknown", "houseNumber":"Unknown", "additionalInformation":"Unknown" }, "operator":"Unknown", "telephone":"Unknown", "website": "Unknown"},{"id":"37", "name":"Br¸ckenstraﬂe", "latitude":"50.937442390459", "longitude":"6.9551466076444", "totalParkingLots":"446", "freeParkingLots":"Unknown", "height":"Unknown", "trend":"More free parking lots are available", "status":"Unknown", "timestamp":"2018-05-10 16:41:41", "prices":"Unknown", "type":"Unknown", "numberOfDisabledParkingLots":"Unknown", "freeDisabledParkingLots":"Unknown", "numberOfElectroParkingLots":"Unknown", "freeOfElectroParkingLots":"Unknown", "numberOfFamilyParkingLots":"Unknown", "freeOfFamilyParkingLots":"Unknown", "numberOfWomenParkingLots":"Unknown", "freeOfWomenParkingLots":"Unknown", "numberOfPremiumParkingLots":"Unknown", "freeOfPremiumParkingLots":"Unknown", "premiumParkingLotPrices":"Unknown", "openingTimes":"", "address":{ "country":"Germany", "state":"North Rhine-Westphalia", "city":"Cologne", "zipCode":"Unknown", "street":"Unknown", "houseNumber":"Unknown", "additionalInformation":"Unknown" }, "operator":"Unknown", "telephone":"Unknown", "website": "Unknown"},{"id":"38", "name":"Rewe", "latitude":"50.935551960218", "longitude":"6.9566578441203", "totalParkingLots":"112", "freeParkingLots":"Unknown", "height":"Unknown", "trend":"Less free parking lots are available", "status":"Unknown", "timestamp":"2018-05-09 11:27:33", "prices":"Unknown", "type":"Unknown", "numberOfDisabledParkingLots":"Unknown", "freeDisabledParkingLots":"Unknown", "numberOfElectroParkingLots":"Unknown", "freeOfElectroParkingLots":"Unknown", "numberOfFamilyParkingLots":"Unknown", "freeOfFamilyParkingLots":"Unknown", "numberOfWomenParkingLots":"Unknown", "freeOfWomenParkingLots":"Unknown", "numberOfPremiumParkingLots":"Unknown", "freeOfPremiumParkingLots":"Unknown", "premiumParkingLotPrices":"Unknown", "openingTimes":"", "address":{ "country":"Germany", "state":"North Rhine-Westphalia", "city":"Cologne", "zipCode":"Unknown", "street":"Unknown", "houseNumber":"Unknown", "additionalInformation":"Unknown" }, "operator":"Unknown", "telephone":"Unknown", "website": "Unknown"},{"id":"39", "name":"Maastrichter Straﬂe", "latitude":"50.938607752577", "longitude":"6.9379774149327", "totalParkingLots":"209", "freeParkingLots":"Unknown", "height":"Unknown", "trend":"Parking lots are staying constanly visited", "status":"Unknown", "timestamp":"2018-05-10 16:41:41", "prices":"Unknown", "type":"Unknown", "numberOfDisabledParkingLots":"Unknown", "freeDisabledParkingLots":"Unknown", "numberOfElectroParkingLots":"Unknown", "freeOfElectroParkingLots":"Unknown", "numberOfFamilyParkingLots":"Unknown", "freeOfFamilyParkingLots":"Unknown", "numberOfWomenParkingLots":"Unknown", "freeOfWomenParkingLots":"Unknown", "numberOfPremiumParkingLots":"Unknown", "freeOfPremiumParkingLots":"Unknown", "premiumParkingLotPrices":"Unknown", "openingTimes":"", "address":{ "country":"Germany", "state":"North Rhine-Westphalia", "city":"Cologne", "zipCode":"Unknown", "street":"Unknown", "houseNumber":"Unknown", "additionalInformation":"Unknown" }, "operator":"Unknown", "telephone":"Unknown", "website": "Unknown"},{"id":"40", "name":"Im Klapperhof", "latitude":"50.942080034931", "longitude":"6.9441022344973", "totalParkingLots":"214", "freeParkingLots":"Unknown", "height":"Unknown", "trend":"Parking lots are staying constanly visited", "status":"Unknown", "timestamp":"2018-05-10 16:38:41", "prices":"Unknown", "type":"Unknown", "numberOfDisabledParkingLots":"Unknown", "freeDisabledParkingLots":"Unknown", "numberOfElectroParkingLots":"Unknown", "freeOfElectroParkingLots":"Unknown", "numberOfFamilyParkingLots":"Unknown", "freeOfFamilyParkingLots":"Unknown", "numberOfWomenParkingLots":"Unknown", "freeOfWomenParkingLots":"Unknown", "numberOfPremiumParkingLots":"Unknown", "freeOfPremiumParkingLots":"Unknown", "premiumParkingLotPrices":"Unknown", "openingTimes":"", "address":{ "country":"Germany", "state":"North Rhine-Westphalia", "city":"Cologne", "zipCode":"Unknown", "street":"Unknown", "houseNumber":"Unknown", "additionalInformation":"Unknown" }, "operator":"Unknown", "telephone":"Unknown", "website": "Unknown"},{"id":"41", "name":"Philharmonie", "latitude":"50.94045491275", "longitude":"6.9614107905593", "totalParkingLots":"178", "freeParkingLots":"Unknown", "height":"Unknown", "trend":"Less free parking lots are available", "status":"Unknown", "timestamp":"2018-04-24 14:07:29", "prices":"Unknown", "type":"Unknown", "numberOfDisabledParkingLots":"Unknown", "freeDisabledParkingLots":"Unknown", "numberOfElectroParkingLots":"Unknown", "freeOfElectroParkingLots":"Unknown", "numberOfFamilyParkingLots":"Unknown", "freeOfFamilyParkingLots":"Unknown", "numberOfWomenParkingLots":"Unknown", "freeOfWomenParkingLots":"Unknown", "numberOfPremiumParkingLots":"Unknown", "freeOfPremiumParkingLots":"Unknown", "premiumParkingLotPrices":"Unknown", "openingTimes":"", "address":{ "country":"Germany", "state":"North Rhine-Westphalia", "city":"Cologne", "zipCode":"Unknown", "street":"Unknown", "houseNumber":"Unknown", "additionalInformation":"Unknown" }, "operator":"Unknown", "telephone":"Unknown", "website": "Unknown"},{"id":"42", "name":"C‰cilienstraﬂe", "latitude":"50.934957676108", "longitude":"6.9513660308025", "totalParkingLots":"72", "freeParkingLots":"Unknown", "height":"Unknown", "trend":"More free parking lots are available", "status":"Unknown", "timestamp":"2018-05-10 16:34:41", "prices":"Unknown", "type":"Unknown", "numberOfDisabledParkingLots":"Unknown", "freeDisabledParkingLots":"Unknown", "numberOfElectroParkingLots":"Unknown", "freeOfElectroParkingLots":"Unknown", "numberOfFamilyParkingLots":"Unknown", "freeOfFamilyParkingLots":"Unknown", "numberOfWomenParkingLots":"Unknown", "freeOfWomenParkingLots":"Unknown", "numberOfPremiumParkingLots":"Unknown", "freeOfPremiumParkingLots":"Unknown", "premiumParkingLotPrices":"Unknown", "openingTimes":"", "address":{ "country":"Germany", "state":"North Rhine-Westphalia", "city":"Cologne", "zipCode":"Unknown", "street":"Unknown", "houseNumber":"Unknown", "additionalInformation":"Unknown" }, "operator":"Unknown", "telephone":"Unknown", "website": "Unknown"},{"id":"43", "name":"Kaufhof", "latitude":"50.935512130649", "longitude":"6.9549356486054", "totalParkingLots":"953", "freeParkingLots":"Unknown", "height":"Unknown", "trend":"Parking lots are staying constanly visited", "status":"Unknown", "timestamp":"2018-05-10 16:23:41", "prices":"Unknown", "type":"Unknown", "numberOfDisabledParkingLots":"Unknown", "freeDisabledParkingLots":"Unknown", "numberOfElectroParkingLots":"Unknown", "freeOfElectroParkingLots":"Unknown", "numberOfFamilyParkingLots":"Unknown", "freeOfFamilyParkingLots":"Unknown", "numberOfWomenParkingLots":"Unknown", "freeOfWomenParkingLots":"Unknown", "numberOfPremiumParkingLots":"Unknown", "freeOfPremiumParkingLots":"Unknown", "premiumParkingLotPrices":"Unknown", "openingTimes":"", "address":{ "country":"Germany", "state":"North Rhine-Westphalia", "city":"Cologne", "zipCode":"Unknown", "street":"Unknown", "houseNumber":"Unknown", "additionalInformation":"Unknown" }, "operator":"Unknown", "telephone":"Unknown", "website": "Unknown"},{"id":"44", "name":"Hohe Straﬂe", "latitude":"50.938818312834", "longitude":"6.956969425138", "totalParkingLots":"154", "freeParkingLots":"Unknown", "height":"Unknown", "trend":"Parking lots are staying constanly visited", "status":"Unknown", "timestamp":"2018-05-10 16:39:42", "prices":"Unknown", "type":"Unknown", "numberOfDisabledParkingLots":"Unknown", "freeDisabledParkingLots":"Unknown", "numberOfElectroParkingLots":"Unknown", "freeOfElectroParkingLots":"Unknown", "numberOfFamilyParkingLots":"Unknown", "freeOfFamilyParkingLots":"Unknown", "numberOfWomenParkingLots":"Unknown", "freeOfWomenParkingLots":"Unknown", "numberOfPremiumParkingLots":"Unknown", "freeOfPremiumParkingLots":"Unknown", "premiumParkingLotPrices":"Unknown", "openingTimes":"", "address":{ "country":"Germany", "state":"North Rhine-Westphalia", "city":"Cologne", "zipCode":"Unknown", "street":"Unknown", "houseNumber":"Unknown", "additionalInformation":"Unknown" }, "operator":"Unknown", "telephone":"Unknown", "website": "Unknown"},{"id":"45", "name":"Theater-Parkhaus", "latitude":"50.937197858712", "longitude":"6.9498329945035", "totalParkingLots":"307", "freeParkingLots":"Unknown", "height":"Unknown", "trend":"Parking lots are staying constanly visited", "status":"Unknown", "timestamp":"2018-05-10 13:29:34", "prices":"Unknown", "type":"Unknown", "numberOfDisabledParkingLots":"Unknown", "freeDisabledParkingLots":"Unknown", "numberOfElectroParkingLots":"Unknown", "freeOfElectroParkingLots":"Unknown", "numberOfFamilyParkingLots":"Unknown", "freeOfFamilyParkingLots":"Unknown", "numberOfWomenParkingLots":"Unknown", "freeOfWomenParkingLots":"Unknown", "numberOfPremiumParkingLots":"Unknown", "freeOfPremiumParkingLots":"Unknown", "premiumParkingLotPrices":"Unknown", "openingTimes":"", "address":{ "country":"Germany", "state":"North Rhine-Westphalia", "city":"Cologne", "zipCode":"Unknown", "street":"Unknown", "houseNumber":"Unknown", "additionalInformation":"Unknown" }, "operator":"Unknown", "telephone":"Unknown", "website": "Unknown"},{"id":"46", "name":"Opernpassagen", "latitude":"50.938733300316", "longitude":"6.9522635836521", "totalParkingLots":"390", "freeParkingLots":"Unknown", "height":"Unknown", "trend":"Parking lots are staying constanly visited", "status":"Unknown", "timestamp":"2018-05-10 16:40:42", "prices":"Unknown", "type":"Unknown", "numberOfDisabledParkingLots":"Unknown", "freeDisabledParkingLots":"Unknown", "numberOfElectroParkingLots":"Unknown", "freeOfElectroParkingLots":"Unknown", "numberOfFamilyParkingLots":"Unknown", "freeOfFamilyParkingLots":"Unknown", "numberOfWomenParkingLots":"Unknown", "freeOfWomenParkingLots":"Unknown", "numberOfPremiumParkingLots":"Unknown", "freeOfPremiumParkingLots":"Unknown", "premiumParkingLotPrices":"Unknown", "openingTimes":"", "address":{ "country":"Germany", "state":"North Rhine-Westphalia", "city":"Cologne", "zipCode":"Unknown", "street":"Unknown", "houseNumber":"Unknown", "additionalInformation":"Unknown" }, "operator":"Unknown", "telephone":"Unknown", "website": "Unknown"},{"id":"47", "name":"Maritim", "latitude":"50.935596347032", "longitude":"6.9621927826298", "totalParkingLots":"0", "freeParkingLots":"Unknown", "height":"Unknown", "trend":"Parking lots are staying constanly visited", "status":"Unknown", "timestamp":"2018-05-10 16:16:40", "prices":"Unknown", "type":"Unknown", "numberOfDisabledParkingLots":"Unknown", "freeDisabledParkingLots":"Unknown", "numberOfElectroParkingLots":"Unknown", "freeOfElectroParkingLots":"Unknown", "numberOfFamilyParkingLots":"Unknown", "freeOfFamilyParkingLots":"Unknown", "numberOfWomenParkingLots":"Unknown", "freeOfWomenParkingLots":"Unknown", "numberOfPremiumParkingLots":"Unknown", "freeOfPremiumParkingLots":"Unknown", "premiumParkingLotPrices":"Unknown", "openingTimes":"", "address":{ "country":"Germany", "state":"North Rhine-Westphalia", "city":"Cologne", "zipCode":"Unknown", "street":"Unknown", "houseNumber":"Unknown", "additionalInformation":"Unknown" }, "operator":"Unknown", "telephone":"Unknown", "website": "Unknown"},{"id":"48", "name":"Am Neumarkt", "latitude":"50.934765495969", "longitude":"6.9473120739802", "totalParkingLots":"71", "freeParkingLots":"Unknown", "height":"Unknown", "trend":"Parking lots are staying constanly visited", "status":"Unknown", "timestamp":"2018-05-10 16:41:41", "prices":"Unknown", "type":"Unknown", "numberOfDisabledParkingLots":"Unknown", "freeDisabledParkingLots":"Unknown", "numberOfElectroParkingLots":"Unknown", "freeOfElectroParkingLots":"Unknown", "numberOfFamilyParkingLots":"Unknown", "freeOfFamilyParkingLots":"Unknown", "numberOfWomenParkingLots":"Unknown", "freeOfWomenParkingLots":"Unknown", "numberOfPremiumParkingLots":"Unknown", "freeOfPremiumParkingLots":"Unknown", "premiumParkingLotPrices":"Unknown", "openingTimes":"", "address":{ "country":"Germany", "state":"North Rhine-Westphalia", "city":"Cologne", "zipCode":"Unknown", "street":"Unknown", "houseNumber":"Unknown", "additionalInformation":"Unknown" }, "operator":"Unknown", "telephone":"Unknown", "website": "Unknown"},{"id":"49", "name":"Alte Wallgasse", "latitude":"50.939834935292", "longitude":"6.9424662360469", "totalParkingLots":"92", "freeParkingLots":"Unknown", "height":"Unknown", "trend":"Less free parking lots are available", "status":"Unknown", "timestamp":"2018-05-10 16:41:41", "prices":"Unknown", "type":"Unknown", "numberOfDisabledParkingLots":"Unknown", "freeDisabledParkingLots":"Unknown", "numberOfElectroParkingLots":"Unknown", "freeOfElectroParkingLots":"Unknown", "numberOfFamilyParkingLots":"Unknown", "freeOfFamilyParkingLots":"Unknown", "numberOfWomenParkingLots":"Unknown", "freeOfWomenParkingLots":"Unknown", "numberOfPremiumParkingLots":"Unknown", "freeOfPremiumParkingLots":"Unknown", "premiumParkingLotPrices":"Unknown", "openingTimes":"", "address":{ "country":"Germany", "state":"North Rhine-Westphalia", "city":"Cologne", "zipCode":"Unknown", "street":"Unknown", "houseNumber":"Unknown", "additionalInformation":"Unknown" }, "operator":"Unknown", "telephone":"Unknown", "website": "Unknown"},{"id":"50", "name":"G¸rzenich", "latitude":"50.936952549686", "longitude":"6.9578148706143", "totalParkingLots":"183", "freeParkingLots":"Unknown", "height":"Unknown", "trend":"Parking lots are staying constanly visited", "status":"Unknown", "timestamp":"2018-05-10 14:26:36", "prices":"Unknown", "type":"Unknown", "numberOfDisabledParkingLots":"Unknown", "freeDisabledParkingLots":"Unknown", "numberOfElectroParkingLots":"Unknown", "freeOfElectroParkingLots":"Unknown", "numberOfFamilyParkingLots":"Unknown", "freeOfFamilyParkingLots":"Unknown", "numberOfWomenParkingLots":"Unknown", "freeOfWomenParkingLots":"Unknown", "numberOfPremiumParkingLots":"Unknown", "freeOfPremiumParkingLots":"Unknown", "premiumParkingLotPrices":"Unknown", "openingTimes":"", "address":{ "country":"Germany", "state":"North Rhine-Westphalia", "city":"Cologne", "zipCode":"Unknown", "street":"Unknown", "houseNumber":"Unknown", "additionalInformation":"Unknown" }, "operator":"Unknown", "telephone":"Unknown", "website": "Unknown"},{"id":"51", "name":"Karstadt", "latitude":"50.938492996844", "longitude":"6.947996599381", "totalParkingLots":"433", "freeParkingLots":"Unknown", "height":"Unknown", "trend":"More free parking lots are available", "status":"Unknown", "timestamp":"2018-05-10 07:00:21", "prices":"Unknown", "type":"Unknown", "numberOfDisabledParkingLots":"Unknown", "freeDisabledParkingLots":"Unknown", "numberOfElectroParkingLots":"Unknown", "freeOfElectroParkingLots":"Unknown", "numberOfFamilyParkingLots":"Unknown", "freeOfFamilyParkingLots":"Unknown", "numberOfWomenParkingLots":"Unknown", "freeOfWomenParkingLots":"Unknown", "numberOfPremiumParkingLots":"Unknown", "freeOfPremiumParkingLots":"Unknown", "premiumParkingLotPrices":"Unknown", "openingTimes":"", "address":{ "country":"Germany", "state":"North Rhine-Westphalia", "city":"Cologne", "zipCode":"Unknown", "street":"Unknown", "houseNumber":"Unknown", "additionalInformation":"Unknown" }, "operator":"Unknown", "telephone":"Unknown", "website": "Unknown"},{"id":"52", "name":"Kreissparkasse", "latitude":"50.937201399995", "longitude":"6.9473746821028", "totalParkingLots":"167", "freeParkingLots":"Unknown", "height":"Unknown", "trend":"Parking lots are staying constanly visited", "status":"Unknown", "timestamp":"2018-05-10 15:37:39", "prices":"Unknown", "type":"Unknown", "numberOfDisabledParkingLots":"Unknown", "freeDisabledParkingLots":"Unknown", "numberOfElectroParkingLots":"Unknown", "freeOfElectroParkingLots":"Unknown", "numberOfFamilyParkingLots":"Unknown", "freeOfFamilyParkingLots":"Unknown", "numberOfWomenParkingLots":"Unknown", "freeOfWomenParkingLots":"Unknown", "numberOfPremiumParkingLots":"Unknown", "freeOfPremiumParkingLots":"Unknown", "premiumParkingLotPrices":"Unknown", "openingTimes":"", "address":{ "country":"Germany", "state":"North Rhine-Westphalia", "city":"Cologne", "zipCode":"Unknown", "street":"Unknown", "houseNumber":"Unknown", "additionalInformation":"Unknown" }, "operator":"Unknown", "telephone":"Unknown", "website": "Unknown"},{"id":"53", "name":"Heumarkt", "latitude":"50.93645868636", "longitude":"6.9616086266323", "totalParkingLots":"49", "freeParkingLots":"Unknown", "height":"Unknown", "trend":"Parking lots are staying constanly visited", "status":"Unknown", "timestamp":"2018-05-10 16:42:42", "prices":"Unknown", "type":"Unknown", "numberOfDisabledParkingLots":"Unknown", "freeDisabledParkingLots":"Unknown", "numberOfElectroParkingLots":"Unknown", "freeOfElectroParkingLots":"Unknown", "numberOfFamilyParkingLots":"Unknown", "freeOfFamilyParkingLots":"Unknown", "numberOfWomenParkingLots":"Unknown", "freeOfWomenParkingLots":"Unknown", "numberOfPremiumParkingLots":"Unknown", "freeOfPremiumParkingLots":"Unknown", "premiumParkingLotPrices":"Unknown", "openingTimes":"", "address":{ "country":"Germany", "state":"North Rhine-Westphalia", "city":"Cologne", "zipCode":"Unknown", "street":"Unknown", "houseNumber":"Unknown", "additionalInformation":"Unknown" }, "operator":"Unknown", "telephone":"Unknown", "website": "Unknown"},{"id":"54", "name":"Lungengasse", "latitude":"50.934757891277", "longitude":"6.9461361818041", "totalParkingLots":"184", "freeParkingLots":"Unknown", "height":"Unknown", "trend":"Parking lots are staying constanly visited", "status":"Unknown", "timestamp":"2018-05-10 15:32:39", "prices":"Unknown", "type":"Unknown", "numberOfDisabledParkingLots":"Unknown", "freeDisabledParkingLots":"Unknown", "numberOfElectroParkingLots":"Unknown", "freeOfElectroParkingLots":"Unknown", "numberOfFamilyParkingLots":"Unknown", "freeOfFamilyParkingLots":"Unknown", "numberOfWomenParkingLots":"Unknown", "freeOfWomenParkingLots":"Unknown", "numberOfPremiumParkingLots":"Unknown", "freeOfPremiumParkingLots":"Unknown", "premiumParkingLotPrices":"Unknown", "openingTimes":"", "address":{ "country":"Germany", "state":"North Rhine-Westphalia", "city":"Cologne", "zipCode":"Unknown", "street":"Unknown", "houseNumber":"Unknown", "additionalInformation":"Unknown" }, "operator":"Unknown", "telephone":"Unknown", "website": "Unknown"},{"id":"55", "name":"Wolfsstraﬂe", "latitude":"50.937915074786", "longitude":"6.9469644779832", "totalParkingLots":"250", "freeParkingLots":"Unknown", "height":"Unknown", "trend":"Parking lots are staying constanly visited", "status":"Unknown", "timestamp":"2018-05-10 16:40:42", "prices":"Unknown", "type":"Unknown", "numberOfDisabledParkingLots":"Unknown", "freeDisabledParkingLots":"Unknown", "numberOfElectroParkingLots":"Unknown", "freeOfElectroParkingLots":"Unknown", "numberOfFamilyParkingLots":"Unknown", "freeOfFamilyParkingLots":"Unknown", "numberOfWomenParkingLots":"Unknown", "freeOfWomenParkingLots":"Unknown", "numberOfPremiumParkingLots":"Unknown", "freeOfPremiumParkingLots":"Unknown", "premiumParkingLotPrices":"Unknown", "openingTimes":"", "address":{ "country":"Germany", "state":"North Rhine-Westphalia", "city":"Cologne", "zipCode":"Unknown", "street":"Unknown", "houseNumber":"Unknown", "additionalInformation":"Unknown" }, "operator":"Unknown", "telephone":"Unknown", "website": "Unknown"},{"id":"56", "name":"Bazaar De Cologne", "latitude":"50.937536965174", "longitude":"6.9436098702724", "totalParkingLots":"121", "freeParkingLots":"Unknown", "height":"Unknown", "trend":"Parking lots are staying constanly visited", "status":"Unknown", "timestamp":"2018-05-10 16:12:40", "prices":"Unknown", "type":"Unknown", "numberOfDisabledParkingLots":"Unknown", "freeDisabledParkingLots":"Unknown", "numberOfElectroParkingLots":"Unknown", "freeOfElectroParkingLots":"Unknown", "numberOfFamilyParkingLots":"Unknown", "freeOfFamilyParkingLots":"Unknown", "numberOfWomenParkingLots":"Unknown", "freeOfWomenParkingLots":"Unknown", "numberOfPremiumParkingLots":"Unknown", "freeOfPremiumParkingLots":"Unknown", "premiumParkingLotPrices":"Unknown", "openingTimes":"", "address":{ "country":"Germany", "state":"North Rhine-Westphalia", "city":"Cologne", "zipCode":"Unknown", "street":"Unknown", "houseNumber":"Unknown", "additionalInformation":"Unknown" }, "operator":"Unknown", "telephone":"Unknown", "website": "Unknown"},{"id":"57", "name":"Dumont-CarrÈ", "latitude":"50.939400431874", "longitude":"6.950300445787", "totalParkingLots":"581", "freeParkingLots":"Unknown", "height":"Unknown", "trend":"Parking lots are staying constanly visited", "status":"Unknown", "timestamp":"2018-05-10 16:13:40", "prices":"Unknown", "type":"Unknown", "numberOfDisabledParkingLots":"Unknown", "freeDisabledParkingLots":"Unknown", "numberOfElectroParkingLots":"Unknown", "freeOfElectroParkingLots":"Unknown", "numberOfFamilyParkingLots":"Unknown", "freeOfFamilyParkingLots":"Unknown", "numberOfWomenParkingLots":"Unknown", "freeOfWomenParkingLots":"Unknown", "numberOfPremiumParkingLots":"Unknown", "freeOfPremiumParkingLots":"Unknown", "premiumParkingLotPrices":"Unknown", "openingTimes":"", "address":{ "country":"Germany", "state":"North Rhine-Westphalia", "city":"Cologne", "zipCode":"Unknown", "street":"Unknown", "houseNumber":"Unknown", "additionalInformation":"Unknown" }, "operator":"Unknown", "telephone":"Unknown", "website": "Unknown"},{"id":"58", "name":"Sparkasse Kˆlnbonn", "latitude":"50.935120111721", "longitude":"6.9413430485396", "totalParkingLots":"91", "freeParkingLots":"Unknown", "height":"Unknown", "trend":"Less free parking lots are available", "status":"Unknown", "timestamp":"2018-05-09 11:27:33", "prices":"Unknown", "type":"Unknown", "numberOfDisabledParkingLots":"Unknown", "freeDisabledParkingLots":"Unknown", "numberOfElectroParkingLots":"Unknown", "freeOfElectroParkingLots":"Unknown", "numberOfFamilyParkingLots":"Unknown", "freeOfFamilyParkingLots":"Unknown", "numberOfWomenParkingLots":"Unknown", "freeOfWomenParkingLots":"Unknown", "numberOfPremiumParkingLots":"Unknown", "freeOfPremiumParkingLots":"Unknown", "premiumParkingLotPrices":"Unknown", "openingTimes":"", "address":{ "country":"Germany", "state":"North Rhine-Westphalia", "city":"Cologne", "zipCode":"Unknown", "street":"Unknown", "houseNumber":"Unknown", "additionalInformation":"Unknown" }, "operator":"Unknown", "telephone":"Unknown", "website": "Unknown"},{"id":"59", "name":"P+R Stadion", "latitude":"50.937498136359", "longitude":"6.8747512275051", "totalParkingLots":"541", "freeParkingLots":"Unknown", "height":"Unknown", "trend":"Parking lots are staying constanly visited", "status":"Unknown", "timestamp":"2018-05-10 16:38:42", "prices":"Unknown", "type":"Unknown", "numberOfDisabledParkingLots":"Unknown", "freeDisabledParkingLots":"Unknown", "numberOfElectroParkingLots":"Unknown", "freeOfElectroParkingLots":"Unknown", "numberOfFamilyParkingLots":"Unknown", "freeOfFamilyParkingLots":"Unknown", "numberOfWomenParkingLots":"Unknown", "freeOfWomenParkingLots":"Unknown", "numberOfPremiumParkingLots":"Unknown", "freeOfPremiumParkingLots":"Unknown", "premiumParkingLotPrices":"Unknown", "openingTimes":"", "address":{ "country":"Germany", "state":"North Rhine-Westphalia", "city":"Cologne", "zipCode":"Unknown", "street":"Unknown", "houseNumber":"Unknown", "additionalInformation":"Unknown" }, "operator":"Unknown", "telephone":"Unknown", "website": "Unknown"},{"id":"60", "name":"Kaiser-Wilhelm-Ring", "latitude":"50.943669078484", "longitude":"6.9418557254978", "totalParkingLots":"205", "freeParkingLots":"Unknown", "height":"Unknown", "trend":"Less free parking lots are available", "status":"Unknown", "timestamp":"2018-05-10 16:42:42", "prices":"Unknown", "type":"Unknown", "numberOfDisabledParkingLots":"Unknown", "freeDisabledParkingLots":"Unknown", "numberOfElectroParkingLots":"Unknown", "freeOfElectroParkingLots":"Unknown", "numberOfFamilyParkingLots":"Unknown", "freeOfFamilyParkingLots":"Unknown", "numberOfWomenParkingLots":"Unknown", "freeOfWomenParkingLots":"Unknown", "numberOfPremiumParkingLots":"Unknown", "freeOfPremiumParkingLots":"Unknown", "premiumParkingLotPrices":"Unknown", "openingTimes":"", "address":{ "country":"Germany", "state":"North Rhine-Westphalia", "city":"Cologne", "zipCode":"Unknown", "street":"Unknown", "houseNumber":"Unknown", "additionalInformation":"Unknown" }, "operator":"Unknown", "telephone":"Unknown", "website": "Unknown"},{"id":"61", "name":"Rudolfplatz", "latitude":"50.935998341699", "longitude":"6.9382153625347", "totalParkingLots":"245", "freeParkingLots":"Unknown", "height":"Unknown", "trend":"Parking lots are staying constanly visited", "status":"Unknown", "timestamp":"2018-05-10 16:41:42", "prices":"Unknown", "type":"Unknown", "numberOfDisabledParkingLots":"Unknown", "freeDisabledParkingLots":"Unknown", "numberOfElectroParkingLots":"Unknown", "freeOfElectroParkingLots":"Unknown", "numberOfFamilyParkingLots":"Unknown", "freeOfFamilyParkingLots":"Unknown", "numberOfWomenParkingLots":"Unknown", "freeOfWomenParkingLots":"Unknown", "numberOfPremiumParkingLots":"Unknown", "freeOfPremiumParkingLots":"Unknown", "premiumParkingLotPrices":"Unknown", "openingTimes":"", "address":{ "country":"Germany", "state":"North Rhine-Westphalia", "city":"Cologne", "zipCode":"Unknown", "street":"Unknown", "houseNumber":"Unknown", "additionalInformation":"Unknown" }, "operator":"Unknown", "telephone":"Unknown", "website": "Unknown"},{"id":"62", "name":"An Farina", "latitude":"50.938337718729", "longitude":"6.9577074836619", "totalParkingLots":"139", "freeParkingLots":"Unknown", "height":"Unknown", "trend":"Parking lots are staying constanly visited", "status":"Unknown", "timestamp":"2018-05-10 16:39:42", "prices":"Unknown", "type":"Unknown", "numberOfDisabledParkingLots":"Unknown", "freeDisabledParkingLots":"Unknown", "numberOfElectroParkingLots":"Unknown", "freeOfElectroParkingLots":"Unknown", "numberOfFamilyParkingLots":"Unknown", "freeOfFamilyParkingLots":"Unknown", "numberOfWomenParkingLots":"Unknown", "freeOfWomenParkingLots":"Unknown", "numberOfPremiumParkingLots":"Unknown", "freeOfPremiumParkingLots":"Unknown", "premiumParkingLotPrices":"Unknown", "openingTimes":"", "address":{ "country":"Germany", "state":"North Rhine-Westphalia", "city":"Cologne", "zipCode":"Unknown", "street":"Unknown", "houseNumber":"Unknown", "additionalInformation":"Unknown" }, "operator":"Unknown", "telephone":"Unknown", "website": "Unknown"},{"id":"63", "name":"Zoo/Flora", "latitude":"50.957234663597", "longitude":"6.9750651603366", "totalParkingLots":"-1", "freeParkingLots":"Unknown", "height":"Unknown", "trend":"Not available", "status":"Unknown", "timestamp":"2018-04-24 13:18:28", "prices":"Unknown", "type":"Unknown", "numberOfDisabledParkingLots":"Unknown", "freeDisabledParkingLots":"Unknown", "numberOfElectroParkingLots":"Unknown", "freeOfElectroParkingLots":"Unknown", "numberOfFamilyParkingLots":"Unknown", "freeOfFamilyParkingLots":"Unknown", "numberOfWomenParkingLots":"Unknown", "freeOfWomenParkingLots":"Unknown", "numberOfPremiumParkingLots":"Unknown", "freeOfPremiumParkingLots":"Unknown", "premiumParkingLotPrices":"Unknown", "openingTimes":"", "address":{ "country":"Germany", "state":"North Rhine-Westphalia", "city":"Cologne", "zipCode":"Unknown", "street":"Unknown", "houseNumber":"Unknown", "additionalInformation":"Unknown" }, "operator":"Unknown", "telephone":"Unknown", "website": "Unknown"},{"id":"64", "name":"Mediapark", "latitude":"50.947637027599", "longitude":"6.9445472812521", "totalParkingLots":"65", "freeParkingLots":"Unknown", "height":"Unknown", "trend":"More free parking lots are available", "status":"Unknown", "timestamp":"2018-05-10 16:42:42", "prices":"Unknown", "type":"Unknown", "numberOfDisabledParkingLots":"Unknown", "freeDisabledParkingLots":"Unknown", "numberOfElectroParkingLots":"Unknown", "freeOfElectroParkingLots":"Unknown", "numberOfFamilyParkingLots":"Unknown", "freeOfFamilyParkingLots":"Unknown", "numberOfWomenParkingLots":"Unknown", "freeOfWomenParkingLots":"Unknown", "numberOfPremiumParkingLots":"Unknown", "freeOfPremiumParkingLots":"Unknown", "premiumParkingLotPrices":"Unknown", "openingTimes":"", "address":{ "country":"Germany", "state":"North Rhine-Westphalia", "city":"Cologne", "zipCode":"Unknown", "street":"Unknown", "houseNumber":"Unknown", "additionalInformation":"Unknown" }, "operator":"Unknown", "telephone":"Unknown", "website": "Unknown"},{"id":"65", "name":"Gerling Ring Karree", "latitude":"50.941262583518", "longitude":"6.9408824051627", "totalParkingLots":"140", "freeParkingLots":"Unknown", "height":"Unknown", "trend":"Parking lots are staying constanly visited", "status":"Unknown", "timestamp":"2018-05-10 16:41:42", "prices":"Unknown", "type":"Unknown", "numberOfDisabledParkingLots":"Unknown", "freeDisabledParkingLots":"Unknown", "numberOfElectroParkingLots":"Unknown", "freeOfElectroParkingLots":"Unknown", "numberOfFamilyParkingLots":"Unknown", "freeOfFamilyParkingLots":"Unknown", "numberOfWomenParkingLots":"Unknown", "freeOfWomenParkingLots":"Unknown", "numberOfPremiumParkingLots":"Unknown", "freeOfPremiumParkingLots":"Unknown", "premiumParkingLotPrices":"Unknown", "openingTimes":"", "address":{ "country":"Germany", "state":"North Rhine-Westphalia", "city":"Cologne", "zipCode":"Unknown", "street":"Unknown", "houseNumber":"Unknown", "additionalInformation":"Unknown" }, "operator":"Unknown", "telephone":"Unknown", "website": "Unknown"},{"id":"66", "name":"Rheinauhafen Museen", "latitude":"50.931409981024", "longitude":"6.9629598563063", "totalParkingLots":"10", "freeParkingLots":"Unknown", "height":"Unknown", "trend":"Less free parking lots are available", "status":"Unknown", "timestamp":"2018-04-24 13:16:28", "prices":"Unknown", "type":"Unknown", "numberOfDisabledParkingLots":"Unknown", "freeDisabledParkingLots":"Unknown", "numberOfElectroParkingLots":"Unknown", "freeOfElectroParkingLots":"Unknown", "numberOfFamilyParkingLots":"Unknown", "freeOfFamilyParkingLots":"Unknown", "numberOfWomenParkingLots":"Unknown", "freeOfWomenParkingLots":"Unknown", "numberOfPremiumParkingLots":"Unknown", "freeOfPremiumParkingLots":"Unknown", "premiumParkingLotPrices":"Unknown", "openingTimes":"", "address":{ "country":"Germany", "state":"North Rhine-Westphalia", "city":"Cologne", "zipCode":"Unknown", "street":"Unknown", "houseNumber":"Unknown", "additionalInformation":"Unknown" }, "operator":"Unknown", "telephone":"Unknown", "website": "Unknown"},{"id":"67", "name":"Rheinauhafen Bayenturm", "latitude":"50.927293512589", "longitude":"6.9639700477516", "totalParkingLots":"100", "freeParkingLots":"Unknown", "height":"Unknown", "trend":"Less free parking lots are available", "status":"Unknown", "timestamp":"2018-04-24 13:16:28", "prices":"Unknown", "type":"Unknown", "numberOfDisabledParkingLots":"Unknown", "freeDisabledParkingLots":"Unknown", "numberOfElectroParkingLots":"Unknown", "freeOfElectroParkingLots":"Unknown", "numberOfFamilyParkingLots":"Unknown", "freeOfFamilyParkingLots":"Unknown", "numberOfWomenParkingLots":"Unknown", "freeOfWomenParkingLots":"Unknown", "numberOfPremiumParkingLots":"Unknown", "freeOfPremiumParkingLots":"Unknown", "premiumParkingLotPrices":"Unknown", "openingTimes":"", "address":{ "country":"Germany", "state":"North Rhine-Westphalia", "city":"Cologne", "zipCode":"Unknown", "street":"Unknown", "houseNumber":"Unknown", "additionalInformation":"Unknown" }, "operator":"Unknown", "telephone":"Unknown", "website": "Unknown"},{"id":"68", "name":"Rheinauhafen Oberl‰nder Wall", "latitude":"50.921036153176", "longitude":"6.9684058893394", "totalParkingLots":"50", "freeParkingLots":"Unknown", "height":"Unknown", "trend":"Less free parking lots are available", "status":"Unknown", "timestamp":"2018-04-24 13:16:28", "prices":"Unknown", "type":"Unknown", "numberOfDisabledParkingLots":"Unknown", "freeDisabledParkingLots":"Unknown", "numberOfElectroParkingLots":"Unknown", "freeOfElectroParkingLots":"Unknown", "numberOfFamilyParkingLots":"Unknown", "freeOfFamilyParkingLots":"Unknown", "numberOfWomenParkingLots":"Unknown", "freeOfWomenParkingLots":"Unknown", "numberOfPremiumParkingLots":"Unknown", "freeOfPremiumParkingLots":"Unknown", "premiumParkingLotPrices":"Unknown", "openingTimes":"", "address":{ "country":"Germany", "state":"North Rhine-Westphalia", "city":"Cologne", "zipCode":"Unknown", "street":"Unknown", "houseNumber":"Unknown", "additionalInformation":"Unknown" }, "operator":"Unknown", "telephone":"Unknown", "website": "Unknown"},{"id":"69", "name":"Stadion P1 - Nur Bei Veranstaltungen Geˆffnet", "latitude":"50.939818401849", "longitude":"6.8841564926459", "totalParkingLots":"0", "freeParkingLots":"Unknown", "height":"Unknown", "trend":"Less free parking lots are available", "status":"Unknown", "timestamp":"2018-04-24 13:16:28", "prices":"Unknown", "type":"Unknown", "numberOfDisabledParkingLots":"Unknown", "freeDisabledParkingLots":"Unknown", "numberOfElectroParkingLots":"Unknown", "freeOfElectroParkingLots":"Unknown", "numberOfFamilyParkingLots":"Unknown", "freeOfFamilyParkingLots":"Unknown", "numberOfWomenParkingLots":"Unknown", "freeOfWomenParkingLots":"Unknown", "numberOfPremiumParkingLots":"Unknown", "freeOfPremiumParkingLots":"Unknown", "premiumParkingLotPrices":"Unknown", "openingTimes":"", "address":{ "country":"Germany", "state":"North Rhine-Westphalia", "city":"Cologne", "zipCode":"Unknown", "street":"Unknown", "houseNumber":"Unknown", "additionalInformation":"Unknown" }, "operator":"Unknown", "telephone":"Unknown", "website": "Unknown"},{"id":"70", "name":"Stadion P3  - Nur Bei Veranstaltungen Geˆffnet", "latitude":"50.93892501747", "longitude":"6.8690586662953", "totalParkingLots":"0", "freeParkingLots":"Unknown", "height":"Unknown", "trend":"Less free parking lots are available", "status":"Unknown", "timestamp":"2018-04-24 13:16:28", "prices":"Unknown", "type":"Unknown", "numberOfDisabledParkingLots":"Unknown", "freeDisabledParkingLots":"Unknown", "numberOfElectroParkingLots":"Unknown", "freeOfElectroParkingLots":"Unknown", "numberOfFamilyParkingLots":"Unknown", "freeOfFamilyParkingLots":"Unknown", "numberOfWomenParkingLots":"Unknown", "freeOfWomenParkingLots":"Unknown", "numberOfPremiumParkingLots":"Unknown", "freeOfPremiumParkingLots":"Unknown", "premiumParkingLotPrices":"Unknown", "openingTimes":"", "address":{ "country":"Germany", "state":"North Rhine-Westphalia", "city":"Cologne", "zipCode":"Unknown", "street":"Unknown", "houseNumber":"Unknown", "additionalInformation":"Unknown" }, "operator":"Unknown", "telephone":"Unknown", "website": "Unknown"},{"id":"71", "name":"Stadion P4 - Nur Bei Veranstaltungen Geˆffnet", "latitude":"50.9392259266", "longitude":"6.8733040218828", "totalParkingLots":"0", "freeParkingLots":"Unknown", "height":"Unknown", "trend":"Less free parking lots are available", "status":"Unknown", "timestamp":"2018-04-24 13:16:28", "prices":"Unknown", "type":"Unknown", "numberOfDisabledParkingLots":"Unknown", "freeDisabledParkingLots":"Unknown", "numberOfElectroParkingLots":"Unknown", "freeOfElectroParkingLots":"Unknown", "numberOfFamilyParkingLots":"Unknown", "freeOfFamilyParkingLots":"Unknown", "numberOfWomenParkingLots":"Unknown", "freeOfWomenParkingLots":"Unknown", "numberOfPremiumParkingLots":"Unknown", "freeOfPremiumParkingLots":"Unknown", "premiumParkingLotPrices":"Unknown", "openingTimes":"", "address":{ "country":"Germany", "state":"North Rhine-Westphalia", "city":"Cologne", "zipCode":"Unknown", "street":"Unknown", "houseNumber":"Unknown", "additionalInformation":"Unknown" }, "operator":"Unknown", "telephone":"Unknown", "website": "Unknown"},{"id":"72", "name":"Stadion P6 - Nur Bei Veranstaltungen Geˆffnet", "latitude":"50.927534440309", "longitude":"6.8680070825413", "totalParkingLots":"0", "freeParkingLots":"Unknown", "height":"Unknown", "trend":"Less free parking lots are available", "status":"Unknown", "timestamp":"2018-04-24 13:16:28", "prices":"Unknown", "type":"Unknown", "numberOfDisabledParkingLots":"Unknown", "freeDisabledParkingLots":"Unknown", "numberOfElectroParkingLots":"Unknown", "freeOfElectroParkingLots":"Unknown", "numberOfFamilyParkingLots":"Unknown", "freeOfFamilyParkingLots":"Unknown", "numberOfWomenParkingLots":"Unknown", "freeOfWomenParkingLots":"Unknown", "numberOfPremiumParkingLots":"Unknown", "freeOfPremiumParkingLots":"Unknown", "premiumParkingLotPrices":"Unknown", "openingTimes":"", "address":{ "country":"Germany", "state":"North Rhine-Westphalia", "city":"Cologne", "zipCode":"Unknown", "street":"Unknown", "houseNumber":"Unknown", "additionalInformation":"Unknown" }, "operator":"Unknown", "telephone":"Unknown", "website": "Unknown"},{"id":"73", "name":"Stadion P7 - Nur Bei Veranstaltungen Geˆffnet", "latitude":"50.925815290256", "longitude":"6.8683022060738", "totalParkingLots":"0", "freeParkingLots":"Unknown", "height":"Unknown", "trend":"Less free parking lots are available", "status":"Unknown", "timestamp":"2018-04-24 13:16:28", "prices":"Unknown", "type":"Unknown", "numberOfDisabledParkingLots":"Unknown", "freeDisabledParkingLots":"Unknown", "numberOfElectroParkingLots":"Unknown", "freeOfElectroParkingLots":"Unknown", "numberOfFamilyParkingLots":"Unknown", "freeOfFamilyParkingLots":"Unknown", "numberOfWomenParkingLots":"Unknown", "freeOfWomenParkingLots":"Unknown", "numberOfPremiumParkingLots":"Unknown", "freeOfPremiumParkingLots":"Unknown", "premiumParkingLotPrices":"Unknown", "openingTimes":"", "address":{ "country":"Germany", "state":"North Rhine-Westphalia", "city":"Cologne", "zipCode":"Unknown", "street":"Unknown", "houseNumber":"Unknown", "additionalInformation":"Unknown" }, "operator":"Unknown", "telephone":"Unknown", "website": "Unknown"},{"id":"74", "name":"Stadion P8 Pkw - Nur Bei Veranstaltungen Geˆffnet", "latitude":"50.923908133679", "longitude":"6.8672853216002", "totalParkingLots":"-1", "freeParkingLots":"Unknown", "height":"Unknown", "trend":"Not available", "status":"Unknown", "timestamp":"2018-04-24 13:16:28", "prices":"Unknown", "type":"Unknown", "numberOfDisabledParkingLots":"Unknown", "freeDisabledParkingLots":"Unknown", "numberOfElectroParkingLots":"Unknown", "freeOfElectroParkingLots":"Unknown", "numberOfFamilyParkingLots":"Unknown", "freeOfFamilyParkingLots":"Unknown", "numberOfWomenParkingLots":"Unknown", "freeOfWomenParkingLots":"Unknown", "numberOfPremiumParkingLots":"Unknown", "freeOfPremiumParkingLots":"Unknown", "premiumParkingLotPrices":"Unknown", "openingTimes":"", "address":{ "country":"Germany", "state":"North Rhine-Westphalia", "city":"Cologne", "zipCode":"Unknown", "street":"Unknown", "houseNumber":"Unknown", "additionalInformation":"Unknown" }, "operator":"Unknown", "telephone":"Unknown", "website": "Unknown"},{"id":"75", "name":"Stadion P8 Bus - Nur Bei Veranstaltungen Geˆffnet", "latitude":"50.924121091236", "longitude":"6.8688680053802", "totalParkingLots":"0", "freeParkingLots":"Unknown", "height":"Unknown", "trend":"Less free parking lots are available", "status":"Unknown", "timestamp":"2018-04-24 13:16:28", "prices":"Unknown", "type":"Unknown", "numberOfDisabledParkingLots":"Unknown", "freeDisabledParkingLots":"Unknown", "numberOfElectroParkingLots":"Unknown", "freeOfElectroParkingLots":"Unknown", "numberOfFamilyParkingLots":"Unknown", "freeOfFamilyParkingLots":"Unknown", "numberOfWomenParkingLots":"Unknown", "freeOfWomenParkingLots":"Unknown", "numberOfPremiumParkingLots":"Unknown", "freeOfPremiumParkingLots":"Unknown", "premiumParkingLotPrices":"Unknown", "openingTimes":"", "address":{ "country":"Germany", "state":"North Rhine-Westphalia", "city":"Cologne", "zipCode":"Unknown", "street":"Unknown", "houseNumber":"Unknown", "additionalInformation":"Unknown" }, "operator":"Unknown", "telephone":"Unknown", "website": "Unknown"},{"id":"76", "name":"P+R Marsdorf", "latitude":"50.916252633432", "longitude":"6.8483183588226", "totalParkingLots":"614", "freeParkingLots":"Unknown", "height":"Unknown", "trend":"Parking lots are staying constanly visited", "status":"Unknown", "timestamp":"2018-05-10 15:45:39", "prices":"Unknown", "type":"Unknown", "numberOfDisabledParkingLots":"Unknown", "freeDisabledParkingLots":"Unknown", "numberOfElectroParkingLots":"Unknown", "freeOfElectroParkingLots":"Unknown", "numberOfFamilyParkingLots":"Unknown", "freeOfFamilyParkingLots":"Unknown", "numberOfWomenParkingLots":"Unknown", "freeOfWomenParkingLots":"Unknown", "numberOfPremiumParkingLots":"Unknown", "freeOfPremiumParkingLots":"Unknown", "premiumParkingLotPrices":"Unknown", "openingTimes":"", "address":{ "country":"Germany", "state":"North Rhine-Westphalia", "city":"Cologne", "zipCode":"Unknown", "street":"Unknown", "houseNumber":"Unknown", "additionalInformation":"Unknown" }, "operator":"Unknown", "telephone":"Unknown", "website": "Unknown"}]